{"status":"RESULT_STATUS_COMPLETE", "places":{"104120218":{"entityId":"104120218", "parentId":"29475369", "name":"Menorca", "type":"PLACE_TYPE_AIRPORT", "iata":"MAH", "coordinates":{"latitude":39.861389, "longitude":4.215278}}, "104120220":{"entityId":"104120220", "parentId":"27539774", "name":"Halim Perdana Kusuma", "type":"PLACE_TYPE_AIRPORT", "iata":"HLP", "coordinates":{"latitude":-6.268056, "longitude":106.890278}}, "104120221":{"entityId":"104120221", "parentId":"27539818", "name":"Chongqing", "type":"PLACE_TYPE_AIRPORT", "iata":"CKG", "coordinates":{"latitude":29.719167, "longitude":106.641667}}, "104120222":{"entityId":"104120222", "parentId":"27539681", "name":"Cairo", "type":"PLACE_TYPE_AIRPORT", "iata":"CAI", "coordinates":{"latitude":30.1128361, "longitude":31.3997046}}, "104120223":{"entityId":"104120223", "parentId":"27546274", "name":"Santiago Arturo Merino Benítez", "type":"PLACE_TYPE_AIRPORT", "iata":"SCL", "coordinates":{"latitude":-33.39298, "longitude":-70.7858}}, "104120224":{"entityId":"104120224", "parentId":"39828399", "name":"Zanzibar", "type":"PLACE_TYPE_AIRPORT", "iata":"ZNZ", "coordinates":{"latitude":-6.219167, "longitude":39.221944}}, "104120225":{"entityId":"104120225", "parentId":"27542908", "name":"Osaka Itami", "type":"PLACE_TYPE_AIRPORT", "iata":"ITM", "coordinates":{"latitude":34.781667, "longitude":135.441667}}, "104120226":{"entityId":"104120226", "parentId":"27536381", "name":"Nanaimo", "type":"PLACE_TYPE_AIRPORT", "iata":"YCD", "coordinates":{"latitude":49.05, "longitude":-123.866667}}, "104120227":{"entityId":"104120227", "parentId":"27536440", "name":"Internacional de Atlantic City", "type":"PLACE_TYPE_AIRPORT", "iata":"ACY", "coordinates":{"latitude":39.45, "longitude":-74.583333}}, "104120228":{"entityId":"104120228", "parentId":"27547225", "name":"Antananarivo", "type":"PLACE_TYPE_AIRPORT", "iata":"TNR", "coordinates":{"latitude":-18.8, "longitude":47.483333}}, "104120229":{"entityId":"104120229", "parentId":"27548253", "name":"Baotou", "type":"PLACE_TYPE_AIRPORT", "iata":"BAV", "coordinates":{"latitude":40.666667, "longitude":109.983333}}, "104120230":{"entityId":"104120230", "parentId":"27539477", "name":"Estocolmo - Bromma", "type":"PLACE_TYPE_AIRPORT", "iata":"BMA", "coordinates":{"latitude":59.352778, "longitude":17.946389}}, "104120231":{"entityId":"104120231", "parentId":"27536452", "name":"Adelaide", "type":"PLACE_TYPE_AIRPORT", "iata":"ADL", "coordinates":{"latitude":-34.948333, "longitude":138.534722}}, "104120232":{"entityId":"104120232", "parentId":"27548327", "name":"East Midlands", "type":"PLACE_TYPE_AIRPORT", "iata":"EMA", "coordinates":{"latitude":52.829374, "longitude":-1.3321769}}, "104120233":{"entityId":"104120233", "parentId":"27544892", "name":"Mendoza", "type":"PLACE_TYPE_AIRPORT", "iata":"MDZ", "coordinates":{"latitude":-32.831944, "longitude":-68.784722}}, "104120234":{"entityId":"104120234", "parentId":"27544877", "name":"Muscat", "type":"PLACE_TYPE_AIRPORT", "iata":"MCT", "coordinates":{"latitude":23.591667, "longitude":58.279167}}, "104120235":{"entityId":"104120235", "parentId":"27544040", "name":"Lomé", "type":"PLACE_TYPE_AIRPORT", "iata":"LFW", "coordinates":{"latitude":6.1625, "longitude":1.254167}}, "104120237":{"entityId":"104120237", "parentId":"27541852", "name":"Internacional de Glasgow", "type":"PLACE_TYPE_AIRPORT", "iata":"GLA", "coordinates":{"latitude":55.866667, "longitude":-4.433333}}, "104120238":{"entityId":"104120238", "parentId":"34235660", "name":"Karlsruhe / Baden-Baden", "type":"PLACE_TYPE_AIRPORT", "iata":"FKB", "coordinates":{"latitude":48.7792, "longitude":8.0803}}, "104120239":{"entityId":"104120239", "parentId":"27540804", "name":"Zhangjiajie Hehua", "type":"PLACE_TYPE_AIRPORT", "iata":"DYG", "coordinates":{"latitude":29.103883, "longitude":110.444108}}, "104120240":{"entityId":"104120240", "parentId":"46424749", "name":"Humberside", "type":"PLACE_TYPE_AIRPORT", "iata":"HUY", "coordinates":{"latitude":53.583333, "longitude":-0.35}}, "104120241":{"entityId":"104120241", "parentId":"27541669", "name":"Internacional de Fort Lauderdale", "type":"PLACE_TYPE_AIRPORT", "iata":"FLL", "coordinates":{"latitude":26.074167, "longitude":-80.151667}}, "104120242":{"entityId":"104120242", "parentId":"27546187", "name":"Rimini", "type":"PLACE_TYPE_AIRPORT", "iata":"RMI", "coordinates":{"latitude":44.020833, "longitude":12.612222}}, "104120243":{"entityId":"104120243", "parentId":"27536345", "name":"Internacional de Halifax", "type":"PLACE_TYPE_AIRPORT", "iata":"YHZ", "coordinates":{"latitude":44.883333, "longitude":-63.516667}}, "104120244":{"entityId":"104120244", "parentId":"27548470", "name":"Tunxi", "type":"PLACE_TYPE_AIRPORT", "iata":"TXN", "coordinates":{"latitude":29.733333, "longitude":118.3}}, "104120245":{"entityId":"104120245", "parentId":"45552482", "name":"Redang", "type":"PLACE_TYPE_AIRPORT", "iata":"RDN", "coordinates":{"latitude":5.765278, "longitude":103.006944}}, "104120246":{"entityId":"104120246", "parentId":"32020255", "name":"Shirahama", "type":"PLACE_TYPE_AIRPORT", "iata":"SHM", "coordinates":{"latitude":33.661389, "longitude":135.358056}}, "104120247":{"entityId":"104120247", "parentId":"27543810", "name":"Kosice", "type":"PLACE_TYPE_AIRPORT", "iata":"KSC", "coordinates":{"latitude":48.666667, "longitude":21.25}}, "104120249":{"entityId":"104120249", "parentId":"29475145", "name":"Guernsey", "type":"PLACE_TYPE_AIRPORT", "iata":"GCI", "coordinates":{"latitude":49.436111, "longitude":-2.602778}}, "104120251":{"entityId":"104120251", "parentId":"31485497", "name":"Dali", "type":"PLACE_TYPE_AIRPORT", "iata":"DLU", "coordinates":{"latitude":25.666667, "longitude":100.316667}}, "104120252":{"entityId":"104120252", "parentId":"27541922", "name":"Grand Rapids", "type":"PLACE_TYPE_AIRPORT", "iata":"GRR", "coordinates":{"latitude":42.881111, "longitude":-85.524167}}, "104120253":{"entityId":"104120253", "parentId":"27551146", "name":"Port Blair", "type":"PLACE_TYPE_AIRPORT", "iata":"IXZ", "coordinates":{"latitude":11.648333, "longitude":92.743611}}, "104120254":{"entityId":"104120254", "parentId":"27538755", "name":"Bridgetown", "type":"PLACE_TYPE_AIRPORT", "iata":"BGI", "coordinates":{"latitude":13.072222, "longitude":-59.493056}}, "104120255":{"entityId":"104120255", "parentId":"33922188", "name":"Sharm El Sheikh", "type":"PLACE_TYPE_AIRPORT", "iata":"SSH", "coordinates":{"latitude":27.977222, "longitude":34.395}}, "104120258":{"entityId":"104120258", "parentId":"27544958", "name":"Internacional de Velana", "type":"PLACE_TYPE_AIRPORT", "iata":"MLE", "coordinates":{"latitude":4.201389, "longitude":73.524444}}, "104120259":{"entityId":"104120259", "parentId":"27541724", "name":"Fort Smith", "type":"PLACE_TYPE_AIRPORT", "iata":"FSM", "coordinates":{"latitude":35.336111, "longitude":-94.37}}, "104120260":{"entityId":"104120260", "parentId":"27547175", "name":"Tachilek", "type":"PLACE_TYPE_AIRPORT", "iata":"THL", "coordinates":{"latitude":20.45, "longitude":99.95}}, "104120261":{"entityId":"104120261", "parentId":"29475229", "name":"Kos", "type":"PLACE_TYPE_AIRPORT", "iata":"KGS", "coordinates":{"latitude":36.793056, "longitude":27.095278}}, "104120262":{"entityId":"104120262", "parentId":"27546203", "name":"Rockhampton", "type":"PLACE_TYPE_AIRPORT", "iata":"ROK", "coordinates":{"latitude":-23.377222, "longitude":150.475}}, "104120263":{"entityId":"104120263", "parentId":"29475095", "name":"Montserrat", "type":"PLACE_TYPE_AIRPORT", "iata":"MNI", "coordinates":{"latitude":16.75, "longitude":-62.233333}}, "104120264":{"entityId":"104120264", "parentId":"27546162", "name":"Rodes", "type":"PLACE_TYPE_AIRPORT", "iata":"RHO", "coordinates":{"latitude":36.406501, "longitude":28.08629}}, "104120265":{"entityId":"104120265", "parentId":"27545033", "name":"Maun", "type":"PLACE_TYPE_AIRPORT", "iata":"MUB", "coordinates":{"latitude":-19.970833, "longitude":23.430556}}, "104120266":{"entityId":"104120266", "parentId":"27536390", "name":"Apia Faleolo", "type":"PLACE_TYPE_AIRPORT", "iata":"APW", "coordinates":{"latitude":-13.833333, "longitude":-172}}, "104120267":{"entityId":"104120267", "parentId":"27548187", "name":"Watertown", "type":"PLACE_TYPE_AIRPORT", "iata":"ATY", "coordinates":{"latitude":44.908889, "longitude":-97.154167}}, "104120273":{"entityId":"104120273", "parentId":"27536398", "name":"Dawson Creek", "type":"PLACE_TYPE_AIRPORT", "iata":"YDQ", "coordinates":{"latitude":55.733333, "longitude":-120.183333}}, "104120274":{"entityId":"104120274", "parentId":"29475089", "name":"Ilha Grand Cayman", "type":"PLACE_TYPE_AIRPORT", "iata":"GCM", "coordinates":{"latitude":19.2925, "longitude":-81.358056}}, "104120275":{"entityId":"104120275", "parentId":"27545979", "name":"Pellston", "type":"PLACE_TYPE_AIRPORT", "iata":"PLN", "coordinates":{"latitude":45.570833, "longitude":-84.792778}}, "104120279":{"entityId":"104120279", "parentId":"27546264", "name":"Salisbury-Ocean City", "type":"PLACE_TYPE_AIRPORT", "iata":"SBY", "coordinates":{"latitude":38.338611, "longitude":-75.51}}, "104120280":{"entityId":"104120280", "parentId":"27544927", "name":"Maarianhamina", "type":"PLACE_TYPE_AIRPORT", "iata":"MHQ", "coordinates":{"latitude":60.123333, "longitude":19.896667}}, "104120282":{"entityId":"104120282", "parentId":"27543983", "name":"Liberal", "type":"PLACE_TYPE_AIRPORT", "iata":"LBL", "coordinates":{"latitude":37.044444, "longitude":-100.960556}}, "104120283":{"entityId":"104120283", "parentId":"27537522", "name":"Queenstown", "type":"PLACE_TYPE_AIRPORT", "iata":"ZQN", "coordinates":{"latitude":-45.021389, "longitude":168.738889}}, "104120284":{"entityId":"104120284", "parentId":"27542710", "name":"Harrison", "type":"PLACE_TYPE_AIRPORT", "iata":"HRO", "coordinates":{"latitude":36.261667, "longitude":-93.155556}}, "104120285":{"entityId":"104120285", "parentId":"27543068", "name":"Kajaani", "type":"PLACE_TYPE_AIRPORT", "iata":"KAJ", "coordinates":{"latitude":64.277778, "longitude":27.688889}}, "104120286":{"entityId":"104120286", "parentId":"29475437", "name":"Lihue", "type":"PLACE_TYPE_AIRPORT", "iata":"LIH", "coordinates":{"latitude":21.979167, "longitude":-159.345833}}, "104120288":{"entityId":"104120288", "parentId":"27547284", "name":"Traverse City", "type":"PLACE_TYPE_AIRPORT", "iata":"TVC", "coordinates":{"latitude":44.74, "longitude":-85.585833}}, "104120291":{"entityId":"104120291", "parentId":"35236780", "name":"Internacional de Key West", "type":"PLACE_TYPE_AIRPORT", "iata":"EYW", "coordinates":{"latitude":24.556111, "longitude":-81.759722}}, "104120292":{"entityId":"104120292", "parentId":"27544960", "name":"Phrae", "type":"PLACE_TYPE_AIRPORT", "iata":"PRH", "coordinates":{"latitude":18.15, "longitude":100.133333}}, "104120295":{"entityId":"104120295", "parentId":"27539498", "name":"Ballina Byron Gateway", "type":"PLACE_TYPE_AIRPORT", "iata":"BNK", "coordinates":{"latitude":-28.833333, "longitude":153.55}}, "104120297":{"entityId":"104120297", "parentId":"27546027", "name":"Papeete", "type":"PLACE_TYPE_AIRPORT", "iata":"PPT", "coordinates":{"latitude":-17.55375, "longitude":-149.60724}}, "104120299":{"entityId":"104120299", "parentId":"27538762", "name":"Bangor", "type":"PLACE_TYPE_AIRPORT", "iata":"BGR", "coordinates":{"latitude":44.807778, "longitude":-68.827778}}, "104120300":{"entityId":"104120300", "parentId":"27538770", "name":"Bar Harbor", "type":"PLACE_TYPE_AIRPORT", "iata":"BHB", "coordinates":{"latitude":44.448889, "longitude":-68.361667}}, "104120301":{"entityId":"104120301", "parentId":"27542020", "name":"Hayden", "type":"PLACE_TYPE_AIRPORT", "iata":"HDN", "coordinates":{"latitude":40.482471, "longitude":-107.221756}}, "104120302":{"entityId":"104120302", "parentId":"35284339", "name":"Vail-Eagle County", "type":"PLACE_TYPE_AIRPORT", "iata":"EGE", "coordinates":{"latitude":39.642446, "longitude":-106.919975}}, "104120303":{"entityId":"104120303", "parentId":"27545204", "name":"Maui Kahului", "type":"PLACE_TYPE_AIRPORT", "iata":"OGG", "coordinates":{"latitude":20.900556, "longitude":-156.433611}}, "104120305":{"entityId":"104120305", "parentId":"27536213", "name":"Wick", "type":"PLACE_TYPE_AIRPORT", "iata":"WIC", "coordinates":{"latitude":58.456944, "longitude":-3.086667}}, "104120306":{"entityId":"104120306", "parentId":"27548151", "name":"Aspen", "type":"PLACE_TYPE_AIRPORT", "iata":"ASE", "coordinates":{"latitude":39.224275, "longitude":-106.86985}}, "104120307":{"entityId":"104120307", "parentId":"27546230", "name":"Rovaniemi", "type":"PLACE_TYPE_AIRPORT", "iata":"RVN", "coordinates":{"latitude":66.563056, "longitude":25.826667}}, "104120308":{"entityId":"104120308", "parentId":"27547352", "name":"Busuanga", "type":"PLACE_TYPE_AIRPORT", "iata":"USU", "coordinates":{"latitude":12.1, "longitude":120.166667}}, "104120309":{"entityId":"104120309", "parentId":"27540753", "name":"Internacional de Duluth", "type":"PLACE_TYPE_AIRPORT", "iata":"DLH", "coordinates":{"latitude":46.8425, "longitude":-92.190278}}, "104120311":{"entityId":"104120311", "parentId":"35799781", "name":"Iron Mountain", "type":"PLACE_TYPE_AIRPORT", "iata":"IMT", "coordinates":{"latitude":45.815556, "longitude":-88.114167}}, "104120312":{"entityId":"104120312", "parentId":"27545943", "name":"Page", "type":"PLACE_TYPE_AIRPORT", "iata":"PGA", "coordinates":{"latitude":36.926389, "longitude":-111.447222}}, "104120313":{"entityId":"104120313", "parentId":"27543859", "name":"Kristianstad Österlen", "type":"PLACE_TYPE_AIRPORT", "iata":"KID", "coordinates":{"latitude":55.919444, "longitude":14.088889}}, "104120314":{"entityId":"104120314", "parentId":"31479364", "name":"São Martinho", "type":"PLACE_TYPE_AIRPORT", "iata":"SXM", "coordinates":{"latitude":18.043611, "longitude":-63.111944}}, "104120315":{"entityId":"104120315", "parentId":"27548217", "name":"Anguilla", "type":"PLACE_TYPE_AIRPORT", "iata":"AXA", "coordinates":{"latitude":18.20483, "longitude":-63.05508}}, "104120317":{"entityId":"104120317", "parentId":"29475135", "name":"Sint Eustatius", "type":"PLACE_TYPE_AIRPORT", "iata":"EUX", "coordinates":{"latitude":17.493056, "longitude":-62.977778}}, "104120318":{"entityId":"104120318", "parentId":"29475135", "name":"Ilha de Saba", "type":"PLACE_TYPE_AIRPORT", "iata":"SAB", "coordinates":{"latitude":17.65, "longitude":-63.216667}}, "104120319":{"entityId":"104120319", "parentId":"29475093", "name":"Beef Island", "type":"PLACE_TYPE_AIRPORT", "iata":"EIS", "coordinates":{"latitude":18.443889, "longitude":-64.542778}}, "104120320":{"entityId":"104120320", "parentId":"29475093", "name":"Virgin Gorda", "type":"PLACE_TYPE_AIRPORT", "iata":"VIJ", "coordinates":{"latitude":18.445456, "longitude":-64.428077}}, "104120321":{"entityId":"104120321", "parentId":"29475171", "name":"Henry E. Rohlsen", "type":"PLACE_TYPE_AIRPORT", "iata":"STX", "coordinates":{"latitude":17.701944, "longitude":-64.798611}}, "104120322":{"entityId":"104120322", "parentId":"27539426", "name":"Bemidji", "type":"PLACE_TYPE_AIRPORT", "iata":"BJI", "coordinates":{"latitude":47.509722, "longitude":-94.934722}}, "104120323":{"entityId":"104120323", "parentId":"27542939", "name":"Inyokern", "type":"PLACE_TYPE_AIRPORT", "iata":"IYK", "coordinates":{"latitude":35.656667, "longitude":-117.829167}}, "104120324":{"entityId":"104120324", "parentId":"27547163", "name":"Telluride", "type":"PLACE_TYPE_AIRPORT", "iata":"TEX", "coordinates":{"latitude":37.953132, "longitude":-107.909088}}, "104120325":{"entityId":"104120325", "parentId":"27542746", "name":"Huatulco", "type":"PLACE_TYPE_AIRPORT", "iata":"HUX", "coordinates":{"latitude":15.768333, "longitude":-96.235556}}, "104120326":{"entityId":"104120326", "parentId":"27541945", "name":"Gunnison", "type":"PLACE_TYPE_AIRPORT", "iata":"GUC", "coordinates":{"latitude":38.532859, "longitude":-106.939888}}, "104120327":{"entityId":"104120327", "parentId":"27541729", "name":"El Calafate", "type":"PLACE_TYPE_AIRPORT", "iata":"FTE", "coordinates":{"latitude":-50.280278, "longitude":-72.053333}}, "104120328":{"entityId":"104120328", "parentId":"27547384", "name":"Vernal", "type":"PLACE_TYPE_AIRPORT", "iata":"VEL", "coordinates":{"latitude":40.438847, "longitude":-109.511032}}, "104120329":{"entityId":"104120329", "parentId":"27545002", "name":"Marquette", "type":"PLACE_TYPE_AIRPORT", "iata":"MQT", "coordinates":{"latitude":46.534167, "longitude":-87.558333}}, "104120330":{"entityId":"104120330", "parentId":"27537394", "name":"Timmins", "type":"PLACE_TYPE_AIRPORT", "iata":"YTS", "coordinates":{"latitude":48.566667, "longitude":-81.366667}}, "104120331":{"entityId":"104120331", "parentId":"38304360", "name":"Míconos", "type":"PLACE_TYPE_AIRPORT", "iata":"JMK", "coordinates":{"latitude":37.436111, "longitude":25.344444}}, "104120332":{"entityId":"104120332", "parentId":"27545294", "name":"Paros", "type":"PLACE_TYPE_AIRPORT", "iata":"PAS", "coordinates":{"latitude":37.010161, "longitude":25.128137}}, "104120333":{"entityId":"104120333", "parentId":"27544964", "name":"Milos", "type":"PLACE_TYPE_AIRPORT", "iata":"MLO", "coordinates":{"latitude":36.696744, "longitude":24.476531}}, "104120335":{"entityId":"104120335", "parentId":"27539594", "name":"Butte", "type":"PLACE_TYPE_AIRPORT", "iata":"BTM", "coordinates":{"latitude":45.951111, "longitude":-112.493889}}, "104120337":{"entityId":"104120337", "parentId":"27536201", "name":"Internacional de Ketchikan", "type":"PLACE_TYPE_AIRPORT", "iata":"KTN", "coordinates":{"latitude":55.355843, "longitude":-131.712084}}, "104120338":{"entityId":"104120338", "parentId":"27539857", "name":"Hancock", "type":"PLACE_TYPE_AIRPORT", "iata":"CMX", "coordinates":{"latitude":47.167778, "longitude":-88.486389}}, "104120340":{"entityId":"104120340", "parentId":"27544206", "name":"Lewiston-Nez Perce", "type":"PLACE_TYPE_AIRPORT", "iata":"LWS", "coordinates":{"latitude":46.3728, "longitude":-117.0168}}, "104120341":{"entityId":"104120341", "parentId":"27542915", "name":"Ivalo", "type":"PLACE_TYPE_AIRPORT", "iata":"IVL", "coordinates":{"latitude":68.611111, "longitude":27.415556}}, "104120343":{"entityId":"104120343", "parentId":"27540620", "name":"Clovis Municipal", "type":"PLACE_TYPE_AIRPORT", "iata":"CVN", "coordinates":{"latitude":34.427302, "longitude":-103.079224}}, "104120344":{"entityId":"104120344", "parentId":"27536378", "name":"Deer Lake", "type":"PLACE_TYPE_AIRPORT", "iata":"YDF", "coordinates":{"latitude":49.216667, "longitude":-57.4}}, "104120345":{"entityId":"104120345", "parentId":"27543001", "name":"Jamestown", "type":"PLACE_TYPE_AIRPORT", "iata":"JMS", "coordinates":{"latitude":46.93, "longitude":-98.678333}}, "104120346":{"entityId":"104120346", "parentId":"27536166", "name":"Iqaluit", "type":"PLACE_TYPE_AIRPORT", "iata":"YFB", "coordinates":{"latitude":63.752222, "longitude":-68.563889}}, "104120347":{"entityId":"104120347", "parentId":"27543913", "name":"Kittilä", "type":"PLACE_TYPE_AIRPORT", "iata":"KTT", "coordinates":{"latitude":67.701, "longitude":24.8469}}, "104120348":{"entityId":"104120348", "parentId":"27541778", "name":"Garden City", "type":"PLACE_TYPE_AIRPORT", "iata":"GCK", "coordinates":{"latitude":37.928611, "longitude":-100.729722}}, "104120350":{"entityId":"104120350", "parentId":"27537444", "name":"Smithers", "type":"PLACE_TYPE_AIRPORT", "iata":"YYD", "coordinates":{"latitude":54.825556, "longitude":-127.180278}}, "104120351":{"entityId":"104120351", "parentId":"27537436", "name":"Terrace", "type":"PLACE_TYPE_AIRPORT", "iata":"YXT", "coordinates":{"latitude":54.465556, "longitude":-128.574444}}, "104120352":{"entityId":"104120352", "parentId":"27547105", "name":"Stornoway", "type":"PLACE_TYPE_AIRPORT", "iata":"SYY", "coordinates":{"latitude":58.216111, "longitude":-6.329167}}, "104120353":{"entityId":"104120353", "parentId":"31548508", "name":"Sault Ste. Marie", "type":"PLACE_TYPE_AIRPORT", "iata":"YAM", "coordinates":{"latitude":46.483611, "longitude":-84.507778}}, "104120354":{"entityId":"104120354", "parentId":"27550099", "name":"Parkes", "type":"PLACE_TYPE_AIRPORT", "iata":"PKE", "coordinates":{"latitude":-33.130833, "longitude":148.2425}}, "104120355":{"entityId":"104120355", "parentId":"27543076", "name":"Kuusamo", "type":"PLACE_TYPE_AIRPORT", "iata":"KAO", "coordinates":{"latitude":65.990278, "longitude":29.233889}}, "104120356":{"entityId":"104120356", "parentId":"29475142", "name":"Pohnpei", "type":"PLACE_TYPE_AIRPORT", "iata":"PNI", "coordinates":{"latitude":6.985, "longitude":158.208889}}, "104120357":{"entityId":"104120357", "parentId":"29475410", "name":"Tobago", "type":"PLACE_TYPE_AIRPORT", "iata":"TAB", "coordinates":{"latitude":11.146389, "longitude":-60.836667}}, "104120358":{"entityId":"104120358", "parentId":"27546011", "name":"Porto da Espanha", "type":"PLACE_TYPE_AIRPORT", "iata":"POS", "coordinates":{"latitude":10.6, "longitude":-61.35}}, "104120359":{"entityId":"104120359", "parentId":"27548133", "name":"Arequipa", "type":"PLACE_TYPE_AIRPORT", "iata":"AQP", "coordinates":{"latitude":-16.34107, "longitude":-71.58308}}, "104120360":{"entityId":"104120360", "parentId":"27540900", "name":"Elko", "type":"PLACE_TYPE_AIRPORT", "iata":"EKO", "coordinates":{"latitude":40.823889, "longitude":-115.789722}}, "104120362":{"entityId":"104120362", "parentId":"27545221", "name":"Nome", "type":"PLACE_TYPE_AIRPORT", "iata":"OME", "coordinates":{"latitude":64.511389, "longitude":-165.441667}}, "104120364":{"entityId":"104120364", "parentId":"27547370", "name":"Visby", "type":"PLACE_TYPE_AIRPORT", "iata":"VBY", "coordinates":{"latitude":57.663056, "longitude":18.349444}}, "104120365":{"entityId":"104120365", "parentId":"27541807", "name":"Gällivare Lapland", "type":"PLACE_TYPE_AIRPORT", "iata":"GEV", "coordinates":{"latitude":67.134444, "longitude":20.816667}}, "104120366":{"entityId":"104120366", "parentId":"27540834", "name":"Devils Lake", "type":"PLACE_TYPE_AIRPORT", "iata":"DVL", "coordinates":{"latitude":48.113056, "longitude":-98.9075}}, "104120367":{"entityId":"104120367", "parentId":"27544931", "name":"Internacional de Minot", "type":"PLACE_TYPE_AIRPORT", "iata":"MOT", "coordinates":{"latitude":48.259722, "longitude":-101.280833}}, "104120368":{"entityId":"104120368", "parentId":"27536469", "name":"Akureyri", "type":"PLACE_TYPE_AIRPORT", "iata":"AEY", "coordinates":{"latitude":65.666667, "longitude":-18.166667}}, "104120369":{"entityId":"104120369", "parentId":"27536354", "name":"Campbell River", "type":"PLACE_TYPE_AIRPORT", "iata":"YBL", "coordinates":{"latitude":49.946389, "longitude":-125.265556}}, "104120370":{"entityId":"104120370", "parentId":"27543007", "name":"Juneau", "type":"PLACE_TYPE_AIRPORT", "iata":"JNU", "coordinates":{"latitude":58.355556, "longitude":-134.574722}}, "104120371":{"entityId":"104120371", "parentId":"29475400", "name":"Sal", "type":"PLACE_TYPE_AIRPORT", "iata":"SID", "coordinates":{"latitude":16.745, "longitude":-22.951667}}, "104120372":{"entityId":"104120372", "parentId":"39859933", "name":"Internacional L.F. Wade", "type":"PLACE_TYPE_AIRPORT", "iata":"BDA", "coordinates":{"latitude":32.36404, "longitude":-64.6787}}, "104120373":{"entityId":"104120373", "parentId":"27538493", "name":"Internacional de Fairbanks", "type":"PLACE_TYPE_AIRPORT", "iata":"FAI", "coordinates":{"latitude":64.814444, "longitude":-147.862778}}, "104120374":{"entityId":"104120374", "parentId":"33449681", "name":"Longyearbyen", "type":"PLACE_TYPE_AIRPORT", "iata":"LYR", "coordinates":{"latitude":78.246111, "longitude":15.465556}}, "104120375":{"entityId":"104120375", "parentId":"27543792", "name":"Kiruna", "type":"PLACE_TYPE_AIRPORT", "iata":"KRN", "coordinates":{"latitude":67.822222, "longitude":20.345833}}, "104120376":{"entityId":"104120376", "parentId":"27537439", "name":"Whitehorse", "type":"PLACE_TYPE_AIRPORT", "iata":"YXY", "coordinates":{"latitude":60.716667, "longitude":-135.066667}}, "104120377":{"entityId":"104120377", "parentId":"27538620", "name":"Rock Springs", "type":"PLACE_TYPE_AIRPORT", "iata":"RKS", "coordinates":{"latitude":41.594648, "longitude":-109.065742}}, "104120378":{"entityId":"104120378", "parentId":"29475320", "name":"Phuket", "type":"PLACE_TYPE_AIRPORT", "iata":"HKT", "coordinates":{"latitude":8.1111907, "longitude":98.306529}}, "104120379":{"entityId":"104120379", "parentId":"27540662", "name":"Cruzeiro do Sul", "type":"PLACE_TYPE_AIRPORT", "iata":"CZS", "coordinates":{"latitude":-7.583333, "longitude":-72.783333}}, "104120380":{"entityId":"104120380", "parentId":"27549965", "name":"Nan Nakhon", "type":"PLACE_TYPE_AIRPORT", "iata":"NNT", "coordinates":{"latitude":18.80290185064199, "longitude":100.78524757671688}}, "104120381":{"entityId":"104120381", "parentId":"27544883", "name":"Manado", "type":"PLACE_TYPE_AIRPORT", "iata":"MDC", "coordinates":{"latitude":1.549444, "longitude":124.925833}}, "104120382":{"entityId":"104120382", "parentId":"27542042", "name":"Mae Hong Son", "type":"PLACE_TYPE_AIRPORT", "iata":"HGN", "coordinates":{"latitude":19.298889, "longitude":97.976389}}, "104120384":{"entityId":"104120384", "parentId":"27545976", "name":"Pekanbaru", "type":"PLACE_TYPE_AIRPORT", "iata":"PKU", "coordinates":{"latitude":0.466667, "longitude":101.45}}, "104120385":{"entityId":"104120385", "parentId":"27547271", "name":"Taitung", "type":"PLACE_TYPE_AIRPORT", "iata":"TTT", "coordinates":{"latitude":22.75, "longitude":121.1}}, "104120386":{"entityId":"104120386", "parentId":"27540688", "name":"Dubbo", "type":"PLACE_TYPE_AIRPORT", "iata":"DBO", "coordinates":{"latitude":-32.219167, "longitude":148.5775}}, "104120387":{"entityId":"104120387", "parentId":"81978293", "name":"Ayers Rock / Connellan", "type":"PLACE_TYPE_AIRPORT", "iata":"AYQ", "coordinates":{"latitude":-25.333333, "longitude":131.05}}, "104120388":{"entityId":"104120388", "parentId":"27547236", "name":"Taipé Sung Shan", "type":"PLACE_TYPE_AIRPORT", "iata":"TSA", "coordinates":{"latitude":25.066667, "longitude":121.516667}}, "104120389":{"entityId":"104120389", "parentId":"27539480", "name":"Broome", "type":"PLACE_TYPE_AIRPORT", "iata":"BME", "coordinates":{"latitude":-17.95, "longitude":122.23}}, "104120390":{"entityId":"104120390", "parentId":"27536659", "name":"Fort Mcmurray", "type":"PLACE_TYPE_AIRPORT", "iata":"YMM", "coordinates":{"latitude":56.677778, "longitude":-111.266668}}, "104120391":{"entityId":"104120391", "parentId":"27538783", "name":"Bathurst", "type":"PLACE_TYPE_AIRPORT", "iata":"BHS", "coordinates":{"latitude":-33.409167, "longitude":149.653333}}, "104120393":{"entityId":"104120393", "parentId":"27548447", "name":"Kuala Terengganu", "type":"PLACE_TYPE_AIRPORT", "iata":"TGG", "coordinates":{"latitude":5.381111, "longitude":103.109722}}, "104120394":{"entityId":"104120394", "parentId":"27536569", "name":"Antofagasta", "type":"PLACE_TYPE_AIRPORT", "iata":"ANF", "coordinates":{"latitude":-23.439444, "longitude":-70.442778}}, "104120395":{"entityId":"104120395", "parentId":"45694155", "name":"Song Pan", "type":"PLACE_TYPE_AIRPORT", "iata":"JZH", "coordinates":{"latitude":32.856667, "longitude":103.683056}}, "104120396":{"entityId":"104120396", "parentId":"27539905", "name":"Copiapó", "type":"PLACE_TYPE_AIRPORT", "iata":"CPO", "coordinates":{"latitude":-27.416667, "longitude":-70.536111}}, "104120397":{"entityId":"104120397", "parentId":"31556696", "name":"St John's", "type":"PLACE_TYPE_AIRPORT", "iata":"YYT", "coordinates":{"latitude":47.616944, "longitude":-52.75}}, "104120398":{"entityId":"104120398", "parentId":"27541703", "name":"Freeport", "type":"PLACE_TYPE_AIRPORT", "iata":"FPO", "coordinates":{"latitude":26.555278, "longitude":-78.7}}, "104120399":{"entityId":"104120399", "parentId":"33479520", "name":"Wuyishan", "type":"PLACE_TYPE_AIRPORT", "iata":"WUS", "coordinates":{"latitude":27.716667, "longitude":117.966667}}, "104120400":{"entityId":"104120400", "parentId":"27547251", "name":"Trujillo", "type":"PLACE_TYPE_AIRPORT", "iata":"TRU", "coordinates":{"latitude":-8.09, "longitude":-79.115}}, "104120401":{"entityId":"104120401", "parentId":"27546071", "name":"Punta Arenas", "type":"PLACE_TYPE_AIRPORT", "iata":"PUQ", "coordinates":{"latitude":-53.002778, "longitude":-70.854722}}, "104120402":{"entityId":"104120402", "parentId":"27548161", "name":"Alice Springs", "type":"PLACE_TYPE_AIRPORT", "iata":"ASP", "coordinates":{"latitude":-23.803333, "longitude":133.884167}}, "104120403":{"entityId":"104120403", "parentId":"27537500", "name":"Zhanjiang", "type":"PLACE_TYPE_AIRPORT", "iata":"ZHA", "coordinates":{"latitude":21.266667, "longitude":110.466667}}, "104120404":{"entityId":"104120404", "parentId":"27537354", "name":"Gander", "type":"PLACE_TYPE_AIRPORT", "iata":"YQX", "coordinates":{"latitude":48.946667, "longitude":-54.563333}}, "104120405":{"entityId":"104120405", "parentId":"32804201", "name":"Ji-Paraná", "type":"PLACE_TYPE_AIRPORT", "iata":"JPR", "coordinates":{"latitude":-10.866561, "longitude":-61.860452}}, "104120406":{"entityId":"104120406", "parentId":"27546284", "name":"Santarém", "type":"PLACE_TYPE_AIRPORT", "iata":"STM", "coordinates":{"latitude":-2.433333, "longitude":-54.7}}, "104120407":{"entityId":"104120407", "parentId":"31630782", "name":"Val D'Or", "type":"PLACE_TYPE_AIRPORT", "iata":"YVO", "coordinates":{"latitude":48.052778, "longitude":-77.782778}}, "104120408":{"entityId":"104120408", "parentId":"27543758", "name":"Kendari", "type":"PLACE_TYPE_AIRPORT", "iata":"KDI", "coordinates":{"latitude":-4.077237, "longitude":122.417293}}, "104120409":{"entityId":"104120409", "parentId":"45870196", "name":"Koror", "type":"PLACE_TYPE_AIRPORT", "iata":"ROR", "coordinates":{"latitude":7.364444, "longitude":134.553056}}, "104120410":{"entityId":"104120410", "parentId":"27545300", "name":"Paro", "type":"PLACE_TYPE_AIRPORT", "iata":"PBH", "coordinates":{"latitude":27.433333, "longitude":89.416667}}, "104120412":{"entityId":"104120412", "parentId":"29475101", "name":"Rarotonga", "type":"PLACE_TYPE_AIRPORT", "iata":"RAR", "coordinates":{"latitude":-21.200278, "longitude":-159.8}}, "104120413":{"entityId":"104120413", "parentId":"29475209", "name":"Ilha de Mahe", "type":"PLACE_TYPE_AIRPORT", "iata":"SEZ", "coordinates":{"latitude":-4.672222, "longitude":55.5225}}, "104120414":{"entityId":"104120414", "parentId":"27548433", "name":"Sumbawa", "type":"PLACE_TYPE_AIRPORT", "iata":"SWQ", "coordinates":{"latitude":-8.5, "longitude":117.416667}}, "104120415":{"entityId":"104120415", "parentId":"27539847", "name":"Corumbá", "type":"PLACE_TYPE_AIRPORT", "iata":"CMG", "coordinates":{"latitude":-19.011111, "longitude":-57.672222}}, "104120416":{"entityId":"104120416", "parentId":"27544141", "name":"Longreach", "type":"PLACE_TYPE_AIRPORT", "iata":"LRE", "coordinates":{"latitude":-23.437222, "longitude":144.275556}}, "104120417":{"entityId":"104120417", "parentId":"45872779", "name":"Thành phố Vinh", "type":"PLACE_TYPE_AIRPORT", "iata":"VII", "coordinates":{"latitude":18.7, "longitude":105.633333}}, "104120418":{"entityId":"104120418", "parentId":"27550952", "name":"Tarapoto", "type":"PLACE_TYPE_AIRPORT", "iata":"TPP", "coordinates":{"latitude":-6.511111, "longitude":-76.398611}}, "104120420":{"entityId":"104120420", "parentId":"29475089", "name":"Internacional Gerrard Smith - Cayman Brac", "type":"PLACE_TYPE_AIRPORT", "iata":"CYB", "coordinates":{"latitude":19.686667, "longitude":-79.8875}}, "104120421":{"entityId":"104120421", "parentId":"27546133", "name":"Rio Branco", "type":"PLACE_TYPE_AIRPORT", "iata":"RBR", "coordinates":{"latitude":-9.869167, "longitude":-67.894167}}, "104120422":{"entityId":"104120422", "parentId":"27541654", "name":"Kinshasa N'Djili", "type":"PLACE_TYPE_AIRPORT", "iata":"FIH", "coordinates":{"latitude":-4.383333, "longitude":15.433334}}, "104120423":{"entityId":"104120423", "parentId":"27539673", "name":"Brazzaville", "type":"PLACE_TYPE_AIRPORT", "iata":"BZV", "coordinates":{"latitude":-4.251944, "longitude":15.254722}}, "104120424":{"entityId":"104120424", "parentId":"27540739", "name":"Jambi", "type":"PLACE_TYPE_AIRPORT", "iata":"DJB", "coordinates":{"latitude":-1.634722, "longitude":103.641667}}, "110608996":{"entityId":"110608996", "parentId":"27547276", "name":"Tours", "type":"PLACE_TYPE_AIRPORT", "iata":"TUF", "coordinates":{"latitude":47.428333, "longitude":0.7275}}, "112910553":{"entityId":"112910553", "parentId":"29475437", "name":"Kansas City", "type":"PLACE_TYPE_CITY", "iata":"MKC", "coordinates":{"latitude":39.1260273122, "longitude":-94.5558601225}}, "113140748":{"entityId":"113140748", "parentId":"", "name":"Ilha Holbox", "type":"PLACE_TYPE_ISLAND", "iata":"", "coordinates":{"latitude":21.543932691, "longitude":-87.2578749266}}, "113633027":{"entityId":"113633027", "parentId":"29475407", "name":"Punta Cana", "type":"PLACE_TYPE_CITY", "iata":"PUJ", "coordinates":{"latitude":18.5596187341, "longitude":-68.3982234924}}, "113912509":{"entityId":"113912509", "parentId":"", "name":"Cozumel", "type":"PLACE_TYPE_ISLAND", "iata":"", "coordinates":{"latitude":20.4526873468, "longitude":-86.8942629259}}, "114061069":{"entityId":"114061069", "parentId":"27543798", "name":"Krasnodar", "type":"PLACE_TYPE_AIRPORT", "iata":"KRR", "coordinates":{"latitude":45.066667, "longitude":38.916667}}, "114061070":{"entityId":"114061070", "parentId":"27545938", "name":"Penza", "type":"PLACE_TYPE_AIRPORT", "iata":"PEZ", "coordinates":{"latitude":53.11, "longitude":45.023333}}, "114061071":{"entityId":"114061071", "parentId":"27545196", "name":"Odessa International", "type":"PLACE_TYPE_AIRPORT", "iata":"ODS", "coordinates":{"latitude":46.433333, "longitude":30.683333}}, "114061072":{"entityId":"114061072", "parentId":"27544021", "name":"São Petersburgo Pulkovo", "type":"PLACE_TYPE_AIRPORT", "iata":"LED", "coordinates":{"latitude":59.8, "longitude":30.3}}, "114093937":{"entityId":"114093937", "parentId":"27539438", "name":"Moscou - Vnukovo", "type":"PLACE_TYPE_AIRPORT", "iata":"VKO", "coordinates":{"latitude":55.583333, "longitude":37.266667}}, "114095414":{"entityId":"114095414", "parentId":"27546221", "name":"Saratov", "type":"PLACE_TYPE_AIRPORT", "iata":"RTW", "coordinates":{"latitude":51.562115, "longitude":46.033329}}, "114095908":{"entityId":"114095908", "parentId":"27536466", "name":"Sochi", "type":"PLACE_TYPE_AIRPORT", "iata":"AER", "coordinates":{"latitude":43.45, "longitude":39.9333}}, "114113368":{"entityId":"114113368", "parentId":"27543958", "name":"Kazan", "type":"PLACE_TYPE_AIRPORT", "iata":"KZN", "coordinates":{"latitude":55.606186, "longitude":49.278728}}, "114113668":{"entityId":"114113668", "parentId":"27543855", "name":"Khabarovsk Novy", "type":"PLACE_TYPE_AIRPORT", "iata":"KHV", "coordinates":{"latitude":48.516667, "longitude":135.183333}}, "114113669":{"entityId":"114113669", "parentId":"27547193", "name":"Tyumen", "type":"PLACE_TYPE_AIRPORT", "iata":"TJM", "coordinates":{"latitude":57.189567, "longitude":65.3243}}, "114115878":{"entityId":"114115878", "parentId":"27536536", "name":"Almaty", "type":"PLACE_TYPE_AIRPORT", "iata":"ALA", "coordinates":{"latitude":43.35, "longitude":77.033333}}, "114116022":{"entityId":"114116022", "parentId":"44851098", "name":"Blagoveshchensk", "type":"PLACE_TYPE_AIRPORT", "iata":"BQS", "coordinates":{"latitude":50.416667, "longitude":127.4}}, "114116023":{"entityId":"114116023", "parentId":"27539751", "name":"Chelyabinsk", "type":"PLACE_TYPE_AIRPORT", "iata":"CEK", "coordinates":{"latitude":55.3, "longitude":61.5}}, "114117160":{"entityId":"114117160", "parentId":"44896770", "name":"Zaporizjzja", "type":"PLACE_TYPE_AIRPORT", "iata":"OZH", "coordinates":{"latitude":47.8675, "longitude":35.315833}}, "114117161":{"entityId":"114117161", "parentId":"27543938", "name":"Kirov", "type":"PLACE_TYPE_AIRPORT", "iata":"KVX", "coordinates":{"latitude":58.5, "longitude":49.35}}, "114117384":{"entityId":"114117384", "parentId":"27540883", "name":"Belgorod", "type":"PLACE_TYPE_AIRPORT", "iata":"EGO", "coordinates":{"latitude":50.6438, "longitude":36.5901}}, "114117385":{"entityId":"114117385", "parentId":"27548491", "name":"Voronezh", "type":"PLACE_TYPE_AIRPORT", "iata":"VOZ", "coordinates":{"latitude":51.814211, "longitude":39.229589}}, "114117386":{"entityId":"114117386", "parentId":"27546278", "name":"Aktau", "type":"PLACE_TYPE_AIRPORT", "iata":"SCO", "coordinates":{"latitude":43.866667, "longitude":51.100001}}, "114117387":{"entityId":"114117387", "parentId":"27536417", "name":"Anapa", "type":"PLACE_TYPE_AIRPORT", "iata":"AAQ", "coordinates":{"latitude":45.002097, "longitude":37.347272}}, "114117388":{"entityId":"114117388", "parentId":"27547441", "name":"Vladivostok", "type":"PLACE_TYPE_AIRPORT", "iata":"VVO", "coordinates":{"latitude":43.39895, "longitude":132.14802}}, "114118071":{"entityId":"114118071", "parentId":"27545013", "name":"Mineralnye Vody", "type":"PLACE_TYPE_AIRPORT", "iata":"MRV", "coordinates":{"latitude":44.216667, "longitude":43.1}}, "114118072":{"entityId":"114118072", "parentId":"27550220", "name":"Syktyvkar", "type":"PLACE_TYPE_AIRPORT", "iata":"SCW", "coordinates":{"latitude":61.64705, "longitude":50.84505}}, "114118073":{"entityId":"114118073", "parentId":"27542091", "name":"Hana", "type":"PLACE_TYPE_AIRPORT", "iata":"HNM", "coordinates":{"latitude":20.795833, "longitude":-156.018889}}, "114118243":{"entityId":"114118243", "parentId":"27546150", "name":"Orenburg", "type":"PLACE_TYPE_AIRPORT", "iata":"REN", "coordinates":{"latitude":51.79579, "longitude":55.45674}}, "114118244":{"entityId":"114118244", "parentId":"27536636", "name":"Yakutsk", "type":"PLACE_TYPE_AIRPORT", "iata":"YKS", "coordinates":{"latitude":62.09325, "longitude":129.77067}}, "114118283":{"entityId":"114118283", "parentId":"27545272", "name":"Novosibirsk", "type":"PLACE_TYPE_AIRPORT", "iata":"OVB", "coordinates":{"latitude":55.0167, "longitude":82.6167}}, "114119852":{"entityId":"114119852", "parentId":"27547028", "name":"Yekaterinburg", "type":"PLACE_TYPE_AIRPORT", "iata":"SVX", "coordinates":{"latitude":56.743108, "longitude":60.802728}}, "114119956":{"entityId":"114119956", "parentId":"27542803", "name":"Kiev Boryspil", "type":"PLACE_TYPE_AIRPORT", "iata":"KBP", "coordinates":{"latitude":50.35, "longitude":30.9167}}, "114119958":{"entityId":"114119958", "parentId":"44882360", "name":"Ust-Kamenogorsk", "type":"PLACE_TYPE_AIRPORT", "iata":"UKK", "coordinates":{"latitude":50.033333, "longitude":82.5}}, "114120523":{"entityId":"114120523", "parentId":"27541957", "name":"Atyrau", "type":"PLACE_TYPE_AIRPORT", "iata":"GUW", "coordinates":{"latitude":47.121944, "longitude":51.821389}}, "114120524":{"entityId":"114120524", "parentId":"27542708", "name":"Kharkiv", "type":"PLACE_TYPE_AIRPORT", "iata":"HRK", "coordinates":{"latitude":49.933333, "longitude":36.283333}}, "114120848":{"entityId":"114120848", "parentId":"27546207", "name":"Platov Internacional, Rostov do Don", "type":"PLACE_TYPE_AIRPORT", "iata":"ROV", "coordinates":{"latitude":47.489935, "longitude":39.925774}}, "114121097":{"entityId":"114121097", "parentId":"27541794", "name":"Gelendzik", "type":"PLACE_TYPE_AIRPORT", "iata":"GDZ", "coordinates":{"latitude":44.566667, "longitude":38.016667}}, "114121098":{"entityId":"114121098", "parentId":"27548152", "name":"Astrakhan", "type":"PLACE_TYPE_AIRPORT", "iata":"ASF", "coordinates":{"latitude":46.283333, "longitude":48.006278}}, "114121099":{"entityId":"114121099", "parentId":"27542834", "name":"Irkutsk", "type":"PLACE_TYPE_AIRPORT", "iata":"IKT", "coordinates":{"latitude":52.266667, "longitude":104.416667}}, "114121100":{"entityId":"114121100", "parentId":"27543872", "name":"Krasnoyarsk", "type":"PLACE_TYPE_AIRPORT", "iata":"KJA", "coordinates":{"latitude":56.172947, "longitude":92.493278}}, "114121455":{"entityId":"114121455", "parentId":"27543822", "name":"Karaganda", "type":"PLACE_TYPE_AIRPORT", "iata":"KGF", "coordinates":{"latitude":49.67083, "longitude":73.33444}}, "114125350":{"entityId":"114125350", "parentId":"29475342", "name":"Ilhas Chatham-Tuuta", "type":"PLACE_TYPE_AIRPORT", "iata":"CHT", "coordinates":{"latitude":-43.8, "longitude":-176.350001}}, "114125404":{"entityId":"114125404", "parentId":"27547357", "name":"Yuzhno-Sakhalinsk", "type":"PLACE_TYPE_AIRPORT", "iata":"UUS", "coordinates":{"latitude":46.888672, "longitude":142.717531}}, "114126306":{"entityId":"114126306", "parentId":"27540561", "name":"Cheboksary", "type":"PLACE_TYPE_AIRPORT", "iata":"CSY", "coordinates":{"latitude":56.0903, "longitude":47.3473}}, "114126464":{"entityId":"114126464", "parentId":"27540837", "name":"Phoenix-Mesa Gateway", "type":"PLACE_TYPE_AIRPORT", "iata":"AZA", "coordinates":{"latitude":33.307778, "longitude":-111.655556}}, "114126711":{"entityId":"114126711", "parentId":"27543795", "name":"Kurgan", "type":"PLACE_TYPE_AIRPORT", "iata":"KRO", "coordinates":{"latitude":55.433333, "longitude":65.3}}, "114137841":{"entityId":"114137841", "parentId":"27539438", "name":"Moscou - Sheremetyevo", "type":"PLACE_TYPE_AIRPORT", "iata":"SVO", "coordinates":{"latitude":55.972778, "longitude":37.414722}}, "114137842":{"entityId":"114137842", "parentId":"38738626", "name":"Naberejnye Chelny", "type":"PLACE_TYPE_AIRPORT", "iata":"NBC", "coordinates":{"latitude":55.566667, "longitude":52.1}}, "114138565":{"entityId":"114138565", "parentId":"27542808", "name":"Ivano-Frankivsk", "type":"PLACE_TYPE_AIRPORT", "iata":"IFO", "coordinates":{"latitude":48.883333, "longitude":24.683333}}, "114143416":{"entityId":"114143416", "parentId":"27541890", "name":"Nizhniy Novgorod", "type":"PLACE_TYPE_AIRPORT", "iata":"GOJ", "coordinates":{"latitude":56.230119, "longitude":43.784042}}, "114143424":{"entityId":"114143424", "parentId":"44881540", "name":"Shimkent", "type":"PLACE_TYPE_AIRPORT", "iata":"CIT", "coordinates":{"latitude":42.3, "longitude":69.6}}, "114146217":{"entityId":"114146217", "parentId":"27547419", "name":"Volgogrado", "type":"PLACE_TYPE_AIRPORT", "iata":"VOG", "coordinates":{"latitude":48.782528, "longitude":44.345544}}, "128667015":{"entityId":"128667015", "parentId":"45900097", "name":"Savannakhet", "type":"PLACE_TYPE_AIRPORT", "iata":"ZVK", "coordinates":{"latitude":16.553611, "longitude":104.7625}}, "128667016":{"entityId":"128667016", "parentId":"27537517", "name":"Newman", "type":"PLACE_TYPE_AIRPORT", "iata":"ZNE", "coordinates":{"latitude":-23.416667, "longitude":119.8}}, "128667017":{"entityId":"128667017", "parentId":"27538446", "name":"Zunyi", "type":"PLACE_TYPE_AIRPORT", "iata":"ZYI", "coordinates":{"latitude":27.666667, "longitude":106.833333}}, "128667018":{"entityId":"128667018", "parentId":"27537464", "name":"Sandspit", "type":"PLACE_TYPE_AIRPORT", "iata":"YZP", "coordinates":{"latitude":53.254444, "longitude":-131.812778}}, "128667019":{"entityId":"128667019", "parentId":"27537475", "name":"Zahedan", "type":"PLACE_TYPE_AIRPORT", "iata":"ZAH", "coordinates":{"latitude":29.461944, "longitude":60.906944}}, "128667020":{"entityId":"128667020", "parentId":"27537414", "name":"Kangiqsujuaq", "type":"PLACE_TYPE_AIRPORT", "iata":"YWB", "coordinates":{"latitude":61.6, "longitude":-71.95}}, "128667022":{"entityId":"128667022", "parentId":"46936500", "name":"Lutselke / Snowdrift", "type":"PLACE_TYPE_AIRPORT", "iata":"YSG", "coordinates":{"latitude":62.418611, "longitude":-110.075557}}, "128667023":{"entityId":"128667023", "parentId":"27537342", "name":"Kenora", "type":"PLACE_TYPE_AIRPORT", "iata":"YQK", "coordinates":{"latitude":49.7875, "longitude":-94.358333}}, "128667024":{"entityId":"128667024", "parentId":"27537325", "name":"Aupaluk", "type":"PLACE_TYPE_AIRPORT", "iata":"YPJ", "coordinates":{"latitude":59.3, "longitude":-69.666667}}, "128667025":{"entityId":"128667025", "parentId":"192465742", "name":"Natuashish", "type":"PLACE_TYPE_AIRPORT", "iata":"YNP", "coordinates":{"latitude":55.913889, "longitude":-61.184444}}, "128667027":{"entityId":"128667027", "parentId":"27536621", "name":"Pond Inlet", "type":"PLACE_TYPE_AIRPORT", "iata":"YIO", "coordinates":{"latitude":72.683333, "longitude":-78}}, "128667028":{"entityId":"128667028", "parentId":"27536598", "name":"Igloolik", "type":"PLACE_TYPE_AIRPORT", "iata":"YGT", "coordinates":{"latitude":69.4, "longitude":-81.816667}}, "128667029":{"entityId":"128667029", "parentId":"27536484", "name":"Flin Flon", "type":"PLACE_TYPE_AIRPORT", "iata":"YFO", "coordinates":{"latitude":54.683333, "longitude":-101.683333}}, "128667030":{"entityId":"128667030", "parentId":"27536372", "name":"Chesterfield Inlet", "type":"PLACE_TYPE_AIRPORT", "iata":"YCS", "coordinates":{"latitude":63.333333, "longitude":-90.716667}}, "128667031":{"entityId":"128667031", "parentId":"27536350", "name":"Baie-Comeau", "type":"PLACE_TYPE_AIRPORT", "iata":"YBC", "coordinates":{"latitude":49.133056, "longitude":-68.207222}}, "128667033":{"entityId":"128667033", "parentId":"27536301", "name":"Xi An Xianyang", "type":"PLACE_TYPE_AIRPORT", "iata":"XIY", "coordinates":{"latitude":34.433333, "longitude":108.75}}, "128667034":{"entityId":"128667034", "parentId":"33550368", "name":"Xilinhot", "type":"PLACE_TYPE_AIRPORT", "iata":"XIL", "coordinates":{"latitude":43.966667, "longitude":116.066667}}, "128667035":{"entityId":"128667035", "parentId":"27551014", "name":"Wewak", "type":"PLACE_TYPE_AIRPORT", "iata":"WWK", "coordinates":{"latitude":-3.585833, "longitude":143.673333}}, "128667036":{"entityId":"128667036", "parentId":"27551096", "name":"Wamena", "type":"PLACE_TYPE_AIRPORT", "iata":"WMX", "coordinates":{"latitude":-4.116667, "longitude":138.933333}}, "128667037":{"entityId":"128667037", "parentId":"27536218", "name":"Wanaka", "type":"PLACE_TYPE_AIRPORT", "iata":"WKA", "coordinates":{"latitude":-44.733333, "longitude":169.25}}, "128667039":{"entityId":"128667039", "parentId":"27547433", "name":"Villahermosa", "type":"PLACE_TYPE_AIRPORT", "iata":"VSA", "coordinates":{"latitude":17.996944, "longitude":-92.8175}}, "128667040":{"entityId":"128667040", "parentId":"27547407", "name":"Port Vila", "type":"PLACE_TYPE_AIRPORT", "iata":"VLI", "coordinates":{"latitude":-17.699444, "longitude":168.319722}}, "128667041":{"entityId":"128667041", "parentId":"29475161", "name":"Vahitahi", "type":"PLACE_TYPE_AIRPORT", "iata":"VHZ", "coordinates":{"latitude":-18.78, "longitude":-138.853}}, "128667042":{"entityId":"128667042", "parentId":"27547367", "name":"Sivas", "type":"PLACE_TYPE_AIRPORT", "iata":"VAS", "coordinates":{"latitude":39.813889, "longitude":36.904167}}, "128667043":{"entityId":"128667043", "parentId":"27547355", "name":"Upington", "type":"PLACE_TYPE_AIRPORT", "iata":"UTN", "coordinates":{"latitude":-28.400556, "longitude":21.253333}}, "128667045":{"entityId":"128667045", "parentId":"27547322", "name":"Quimper", "type":"PLACE_TYPE_AIRPORT", "iata":"UIP", "coordinates":{"latitude":47.974444, "longitude":-4.170833}}, "128667046":{"entityId":"128667046", "parentId":"39133086", "name":"Samburu", "type":"PLACE_TYPE_AIRPORT", "iata":"UAS", "coordinates":{"latitude":0.466667, "longitude":37.55}}, "128667047":{"entityId":"128667047", "parentId":"33651357", "name":"Tangshan", "type":"PLACE_TYPE_AIRPORT", "iata":"TVS", "coordinates":{"latitude":39.724, "longitude":117.99345}}, "128667048":{"entityId":"128667048", "parentId":"27547272", "name":"Tetuan S. Ramel", "type":"PLACE_TYPE_AIRPORT", "iata":"TTU", "coordinates":{"latitude":35.583333, "longitude":-5.316667}}, "128667049":{"entityId":"128667049", "parentId":"27547279", "name":"Taupo", "type":"PLACE_TYPE_AIRPORT", "iata":"TUO", "coordinates":{"latitude":-38.742222, "longitude":176.083889}}, "128667050":{"entityId":"128667050", "parentId":"27547230", "name":"Tomsk", "type":"PLACE_TYPE_AIRPORT", "iata":"TOF", "coordinates":{"latitude":56.383333, "longitude":85.211666}}, "128667051":{"entityId":"128667051", "parentId":"27547215", "name":"Tamworth", "type":"PLACE_TYPE_AIRPORT", "iata":"TMW", "coordinates":{"latitude":-31.081944, "longitude":150.845556}}, "128667052":{"entityId":"128667052", "parentId":"27547202", "name":"Tallinn", "type":"PLACE_TYPE_AIRPORT", "iata":"TLL", "coordinates":{"latitude":59.413317, "longitude":24.832844}}, "128667053":{"entityId":"128667053", "parentId":"27547187", "name":"Timaru", "type":"PLACE_TYPE_AIRPORT", "iata":"TIU", "coordinates":{"latitude":-44.302778, "longitude":171.225}}, "128667054":{"entityId":"128667054", "parentId":"27547236", "name":"Taipé Formosa Taoyuan", "type":"PLACE_TYPE_AIRPORT", "iata":"TPE", "coordinates":{"latitude":25.077778, "longitude":121.232778}}, "128667055":{"entityId":"128667055", "parentId":"27547166", "name":"Podgorica", "type":"PLACE_TYPE_AIRPORT", "iata":"TGD", "coordinates":{"latitude":42.358333, "longitude":19.251944}}, "128667056":{"entityId":"128667056", "parentId":"27547191", "name":"Tarija", "type":"PLACE_TYPE_AIRPORT", "iata":"TJA", "coordinates":{"latitude":-21.555833, "longitude":-64.701389}}, "128667057":{"entityId":"128667057", "parentId":"27547127", "name":"Tapachula", "type":"PLACE_TYPE_AIRPORT", "iata":"TAP", "coordinates":{"latitude":14.794444, "longitude":-92.37}}, "128667058":{"entityId":"128667058", "parentId":"27547097", "name":"Sydney", "type":"PLACE_TYPE_AIRPORT", "iata":"SYD", "coordinates":{"latitude":-33.944167, "longitude":151.175833}}, "128667060":{"entityId":"128667060", "parentId":"27546295", "name":"Surate", "type":"PLACE_TYPE_AIRPORT", "iata":"STV", "coordinates":{"latitude":21.1141, "longitude":72.7418}}, "128667061":{"entityId":"128667061", "parentId":"45342296", "name":"Saidpur", "type":"PLACE_TYPE_AIRPORT", "iata":"SPD", "coordinates":{"latitude":25.783333, "longitude":88.9}}, "128667062":{"entityId":"128667062", "parentId":"27547050", "name":"Santa Clara", "type":"PLACE_TYPE_AIRPORT", "iata":"SNU", "coordinates":{"latitude":22.491944, "longitude":-79.941944}}, "128667063":{"entityId":"128667063", "parentId":"29475349", "name":"Santa Maria", "type":"PLACE_TYPE_AIRPORT", "iata":"SMA", "coordinates":{"latitude":36.97139, "longitude":-25.170639}}, "128667064":{"entityId":"128667064", "parentId":"27546370", "name":"Stokmarknes", "type":"PLACE_TYPE_AIRPORT", "iata":"SKN", "coordinates":{"latitude":68.581111, "longitude":15.027222}}, "128667065":{"entityId":"128667065", "parentId":"44441237", "name":"Sharurah", "type":"PLACE_TYPE_AIRPORT", "iata":"SHW", "coordinates":{"latitude":17.416667, "longitude":47.1}}, "128667066":{"entityId":"128667066", "parentId":"27546325", "name":"Sønderborg", "type":"PLACE_TYPE_AIRPORT", "iata":"SGD", "coordinates":{"latitude":54.964367, "longitude":9.791731}}, "128667067":{"entityId":"128667067", "parentId":"27550850", "name":"Simao", "type":"PLACE_TYPE_AIRPORT", "iata":"SYM", "coordinates":{"latitude":22.833333, "longitude":101}}, "128667068":{"entityId":"128667068", "parentId":"27546275", "name":"Scammon Bay", "type":"PLACE_TYPE_AIRPORT", "iata":"SCM", "coordinates":{"latitude":61.846389, "longitude":-165.593889}}, "128667069":{"entityId":"128667069", "parentId":"27546229", "name":"Saravena", "type":"PLACE_TYPE_AIRPORT", "iata":"RVE", "coordinates":{"latitude":6.95472, "longitude":-71.85806}}, "128667070":{"entityId":"128667070", "parentId":"27546215", "name":"Santa Rosa", "type":"PLACE_TYPE_AIRPORT", "iata":"RSA", "coordinates":{"latitude":-36.58832, "longitude":-64.27569}}, "128667071":{"entityId":"128667071", "parentId":"45572918", "name":"Shigatse Peace", "type":"PLACE_TYPE_AIRPORT", "iata":"RKZ", "coordinates":{"latitude":29.351667, "longitude":89.306944}}, "128667072":{"entityId":"128667072", "parentId":"27546204", "name":"Rosário", "type":"PLACE_TYPE_AIRPORT", "iata":"ROS", "coordinates":{"latitude":-32.90361, "longitude":-60.785}}, "128667073":{"entityId":"128667073", "parentId":"27546157", "name":"Río Grande", "type":"PLACE_TYPE_AIRPORT", "iata":"RGA", "coordinates":{"latitude":-53.779167, "longitude":-67.75}}, "128667074":{"entityId":"128667074", "parentId":"27546137", "name":"Richmond", "type":"PLACE_TYPE_AIRPORT", "iata":"RCM", "coordinates":{"latitude":-20.703889, "longitude":143.116667}}, "128667076":{"entityId":"128667076", "parentId":"27549142", "name":"Puerto Ordaz", "type":"PLACE_TYPE_AIRPORT", "iata":"PZO", "coordinates":{"latitude":8.287429, "longitude":-62.763348}}, "128667077":{"entityId":"128667077", "parentId":"27546079", "name":"Xangai PuDong", "type":"PLACE_TYPE_AIRPORT", "iata":"PVG", "coordinates":{"latitude":31.1494, "longitude":121.8038}}, "128667078":{"entityId":"128667078", "parentId":"27546055", "name":"Port Alsworth", "type":"PLACE_TYPE_AIRPORT", "iata":"PTA", "coordinates":{"latitude":60.20417, "longitude":-154.31861}}, "128667079":{"entityId":"128667079", "parentId":"46422263", "name":"Papa Westray", "type":"PLACE_TYPE_AIRPORT", "iata":"PPW", "coordinates":{"latitude":59.351667, "longitude":-2.900278}}, "128667080":{"entityId":"128667080", "parentId":"27546072", "name":"Internacional de Gimhae", "type":"PLACE_TYPE_AIRPORT", "iata":"PUS", "coordinates":{"latitude":35.179444, "longitude":128.938333}}, "128667081":{"entityId":"128667081", "parentId":"27545982", "name":"Semipalatinsk", "type":"PLACE_TYPE_AIRPORT", "iata":"PLX", "coordinates":{"latitude":50.3513, "longitude":80.2344}}, "128667082":{"entityId":"128667082", "parentId":"27545966", "name":"Panjgur", "type":"PLACE_TYPE_AIRPORT", "iata":"PJG", "coordinates":{"latitude":26.966667, "longitude":64.1}}, "128667083":{"entityId":"128667083", "parentId":"27537450", "name":"Port Graham", "type":"PLACE_TYPE_AIRPORT", "iata":"PGM", "coordinates":{"latitude":59.35, "longitude":-151.833333}}, "128667084":{"entityId":"128667084", "parentId":"27548349", "name":"Pelican", "type":"PLACE_TYPE_AIRPORT", "iata":"PEC", "coordinates":{"latitude":57.95, "longitude":-136.233333}}, "128667085":{"entityId":"128667085", "parentId":"45776804", "name":"Puerto Carreño", "type":"PLACE_TYPE_AIRPORT", "iata":"PCR", "coordinates":{"latitude":6.18472, "longitude":-67.49316}}, "128667086":{"entityId":"128667086", "parentId":"27545265", "name":"Oujda L. Angades", "type":"PLACE_TYPE_AIRPORT", "iata":"OUD", "coordinates":{"latitude":34.783333, "longitude":-1.933333}}, "128667087":{"entityId":"128667087", "parentId":"27545244", "name":"Cork", "type":"PLACE_TYPE_AIRPORT", "iata":"ORK", "coordinates":{"latitude":51.843333, "longitude":-8.490278}}, "128667088":{"entityId":"128667088", "parentId":"27544937", "name":"Omaha Eppley Airfield", "type":"PLACE_TYPE_AIRPORT", "iata":"OMA", "coordinates":{"latitude":41.3025, "longitude":-95.894167}}, "128667089":{"entityId":"128667089", "parentId":"27548336", "name":"Vladikavkaz", "type":"PLACE_TYPE_AIRPORT", "iata":"OGZ", "coordinates":{"latitude":43.2, "longitude":44.6}}, "128667090":{"entityId":"128667090", "parentId":"27548331", "name":"Oban Connel", "type":"PLACE_TYPE_AIRPORT", "iata":"OBN", "coordinates":{"latitude":56.4635, "longitude":-5.399667}}, "128667091":{"entityId":"128667091", "parentId":"29475161", "name":"Nukutavake", "type":"PLACE_TYPE_AIRPORT", "iata":"NUK", "coordinates":{"latitude":-19.183333, "longitude":-138.7}}, "128667093":{"entityId":"128667093", "parentId":"27545157", "name":"Nelson", "type":"PLACE_TYPE_AIRPORT", "iata":"NSN", "coordinates":{"latitude":-41.3, "longitude":173.219444}}, "128667094":{"entityId":"128667094", "parentId":"46902354", "name":"Naukiti", "type":"PLACE_TYPE_AIRPORT", "iata":"NKI", "coordinates":{"latitude":55.366667, "longitude":-133.216667}}, "128667095":{"entityId":"128667095", "parentId":"27545105", "name":"Ningbo", "type":"PLACE_TYPE_AIRPORT", "iata":"NGB", "coordinates":{"latitude":29.824722, "longitude":121.465}}, "128667097":{"entityId":"128667097", "parentId":"45539526", "name":"Mulu", "type":"PLACE_TYPE_AIRPORT", "iata":"MZV", "coordinates":{"latitude":4.033333, "longitude":114.8}}, "128667098":{"entityId":"128667098", "parentId":"27545065", "name":"Moruya", "type":"PLACE_TYPE_AIRPORT", "iata":"MYA", "coordinates":{"latitude":-35.901667, "longitude":150.146667}}, "128667099":{"entityId":"128667099", "parentId":"29475101", "name":"Ilha Mauke", "type":"PLACE_TYPE_AIRPORT", "iata":"MUK", "coordinates":{"latitude":-20.1361, "longitude":-157.345}}, "128667100":{"entityId":"128667100", "parentId":"27544926", "name":"Internacional de Minsk 2", "type":"PLACE_TYPE_AIRPORT", "iata":"MSQ", "coordinates":{"latitude":53.88247, "longitude":28.03073}}, "128667101":{"entityId":"128667101", "parentId":"27549309", "name":"Misurata", "type":"PLACE_TYPE_AIRPORT", "iata":"MRA", "coordinates":{"latitude":32.4, "longitude":15.066667}}, "128667102":{"entityId":"128667102", "parentId":"27549298", "name":"Moranbah", "type":"PLACE_TYPE_AIRPORT", "iata":"MOV", "coordinates":{"latitude":-22.0578, "longitude":148.077}}, "128667103":{"entityId":"128667103", "parentId":"46591080", "name":"Vila do Maio", "type":"PLACE_TYPE_AIRPORT", "iata":"MMO", "coordinates":{"latitude":15.25, "longitude":-23.166667}}, "128667104":{"entityId":"128667104", "parentId":"27548298", "name":"Merauke", "type":"PLACE_TYPE_AIRPORT", "iata":"MKQ", "coordinates":{"latitude":-8.516667, "longitude":140.5}}, "128667107":{"entityId":"128667107", "parentId":"35964627", "name":"Midland", "type":"PLACE_TYPE_AIRPORT", "iata":"MBS", "coordinates":{"latitude":43.533333, "longitude":-84.083333}}, "128667108":{"entityId":"128667108", "parentId":"27544226", "name":"Liuzhou", "type":"PLACE_TYPE_AIRPORT", "iata":"LZH", "coordinates":{"latitude":24.2075, "longitude":109.391}}, "128667109":{"entityId":"128667109", "parentId":"27544210", "name":"Lhasa Gonggar", "type":"PLACE_TYPE_AIRPORT", "iata":"LXA", "coordinates":{"latitude":29.297778, "longitude":90.911944}}, "128667111":{"entityId":"128667111", "parentId":"27544152", "name":"La Crosse", "type":"PLACE_TYPE_AIRPORT", "iata":"LSE", "coordinates":{"latitude":43.877222, "longitude":-91.256389}}, "128667112":{"entityId":"128667112", "parentId":"29475337", "name":"Ilha Lihir", "type":"PLACE_TYPE_AIRPORT", "iata":"LNV", "coordinates":{"latitude":-3.066667, "longitude":152.616667}}, "128667113":{"entityId":"128667113", "parentId":"27544089", "name":"Lalibela", "type":"PLACE_TYPE_AIRPORT", "iata":"LLI", "coordinates":{"latitude":12.016667, "longitude":39.066667}}, "128667114":{"entityId":"128667114", "parentId":"27537497", "name":"Lanzhou", "type":"PLACE_TYPE_AIRPORT", "iata":"LHW", "coordinates":{"latitude":36.033333, "longitude":103.866667}}, "128667115":{"entityId":"128667115", "parentId":"45659702", "name":"Yichun Lindu", "type":"PLACE_TYPE_AIRPORT", "iata":"LDS", "coordinates":{"latitude":47.751827, "longitude":129.01799}}, "128667116":{"entityId":"128667116", "parentId":"27543985", "name":"Lábrea", "type":"PLACE_TYPE_AIRPORT", "iata":"LBR", "coordinates":{"latitude":-7.25, "longitude":-64.85}}, "128667117":{"entityId":"128667117", "parentId":"38554474", "name":"Kastelorizo", "type":"PLACE_TYPE_AIRPORT", "iata":"KZS", "coordinates":{"latitude":36.141514, "longitude":29.576483}}, "128667118":{"entityId":"128667118", "parentId":"27543947", "name":"Kwethluk", "type":"PLACE_TYPE_AIRPORT", "iata":"KWT", "coordinates":{"latitude":60.808889, "longitude":-161.4375}}, "128667119":{"entityId":"128667119", "parentId":"27543937", "name":"Kivalina", "type":"PLACE_TYPE_AIRPORT", "iata":"KVL", "coordinates":{"latitude":67.731667, "longitude":-164.547222}}, "128667120":{"entityId":"128667120", "parentId":"27543912", "name":"Teller Mission", "type":"PLACE_TYPE_AIRPORT", "iata":"KTS", "coordinates":{"latitude":65.329444, "longitude":-166.471667}}, "128667121":{"entityId":"128667121", "parentId":"29475229", "name":"Ilha de Kasos", "type":"PLACE_TYPE_AIRPORT", "iata":"KSJ", "coordinates":{"latitude":35.421389, "longitude":26.916667}}, "128667122":{"entityId":"128667122", "parentId":"27544209", "name":"Lawas", "type":"PLACE_TYPE_AIRPORT", "iata":"LWY", "coordinates":{"latitude":4.916667, "longitude":115.416667}}, "128667123":{"entityId":"128667123", "parentId":"27543096", "name":"Kanpur", "type":"PLACE_TYPE_AIRPORT", "iata":"KNU", "coordinates":{"latitude":26.402778, "longitude":80.4125}}, "128667124":{"entityId":"128667124", "parentId":"27543031", "name":"Miyazaki", "type":"PLACE_TYPE_AIRPORT", "iata":"KMI", "coordinates":{"latitude":31.874444, "longitude":131.443889}}, "128667125":{"entityId":"128667125", "parentId":"27543034", "name":"Kumamoto", "type":"PLACE_TYPE_AIRPORT", "iata":"KMJ", "coordinates":{"latitude":32.831944, "longitude":130.8525}}, "128667126":{"entityId":"128667126", "parentId":"27543862", "name":"Kimberley", "type":"PLACE_TYPE_AIRPORT", "iata":"KIM", "coordinates":{"latitude":-28.805833, "longitude":24.766389}}, "128667127":{"entityId":"128667127", "parentId":"27543829", "name":"New Koliganek", "type":"PLACE_TYPE_AIRPORT", "iata":"KGK", "coordinates":{"latitude":59.8, "longitude":-157.233333}}, "128667128":{"entityId":"128667128", "parentId":"45734242", "name":"Nepalganj", "type":"PLACE_TYPE_AIRPORT", "iata":"KEP", "coordinates":{"latitude":28.1325, "longitude":81.576389}}, "128667129":{"entityId":"128667129", "parentId":"27538700", "name":"Kahramanmaraş", "type":"PLACE_TYPE_AIRPORT", "iata":"KCM", "coordinates":{"latitude":37.534444, "longitude":36.950556}}, "128667130":{"entityId":"128667130", "parentId":"27543850", "name":"Carachi", "type":"PLACE_TYPE_AIRPORT", "iata":"KHI", "coordinates":{"latitude":24.905556, "longitude":67.156944}}, "128667131":{"entityId":"128667131", "parentId":"27543044", "name":"Upernavik", "type":"PLACE_TYPE_AIRPORT", "iata":"JUV", "coordinates":{"latitude":72.787869, "longitude":-56.130556}}, "128667132":{"entityId":"128667132", "parentId":"27543013", "name":"Joshkar-Ola", "type":"PLACE_TYPE_AIRPORT", "iata":"JOK", "coordinates":{"latitude":56.705069, "longitude":47.895158}}, "128667133":{"entityId":"128667133", "parentId":"45602024", "name":"Zhoubai", "type":"PLACE_TYPE_AIRPORT", "iata":"JIQ", "coordinates":{"latitude":29.517557, "longitude":108.829185}}, "128667134":{"entityId":"128667134", "parentId":"27542955", "name":"Qasigiannguit", "type":"PLACE_TYPE_AIRPORT", "iata":"JCH", "coordinates":{"latitude":68.833333, "longitude":-51}}, "128667135":{"entityId":"128667135", "parentId":"27542921", "name":"Bagdogra", "type":"PLACE_TYPE_AIRPORT", "iata":"IXB", "coordinates":{"latitude":26.683333, "longitude":88.333333}}, "128667136":{"entityId":"128667136", "parentId":"81979076", "name":"St. Mary", "type":"PLACE_TYPE_AIRPORT", "iata":"ISC", "coordinates":{"latitude":49.914936, "longitude":-6.294539}}, "128667138":{"entityId":"128667138", "parentId":"27542844", "name":"Ilorin", "type":"PLACE_TYPE_AIRPORT", "iata":"ILR", "coordinates":{"latitude":8.5, "longitude":4.533333}}, "128667139":{"entityId":"128667139", "parentId":"27542807", "name":"Isfahan", "type":"PLACE_TYPE_AIRPORT", "iata":"IFN", "coordinates":{"latitude":32.75, "longitude":51.85}}, "128667140":{"entityId":"128667140", "parentId":"27542778", "name":"Igarka", "type":"PLACE_TYPE_AIRPORT", "iata":"IAA", "coordinates":{"latitude":67.433333, "longitude":86.633333}}, "128667141":{"entityId":"128667141", "parentId":"27542742", "name":"Municipal de Hughes", "type":"PLACE_TYPE_AIRPORT", "iata":"HUS", "coordinates":{"latitude":66.040556, "longitude":-154.263333}}, "128667142":{"entityId":"128667142", "parentId":"27542696", "name":"Hot Springs", "type":"PLACE_TYPE_AIRPORT", "iata":"HOT", "coordinates":{"latitude":34.478889, "longitude":-93.096112}}, "128667143":{"entityId":"128667143", "parentId":"27542089", "name":"Tóquio Haneda", "type":"PLACE_TYPE_AIRPORT", "iata":"HND", "coordinates":{"latitude":35.553611, "longitude":139.765833}}, "128667144":{"entityId":"128667144", "parentId":"27542072", "name":"Hailar", "type":"PLACE_TYPE_AIRPORT", "iata":"HLD", "coordinates":{"latitude":49.2, "longitude":119.7}}, "128667145":{"entityId":"128667145", "parentId":"46931018", "name":"Nemiscau", "type":"PLACE_TYPE_AIRPORT", "iata":"YNS", "coordinates":{"latitude":51.69105, "longitude":-76.13621}}, "128667146":{"entityId":"128667146", "parentId":"31589092", "name":"Lloydminster", "type":"PLACE_TYPE_AIRPORT", "iata":"YLL", "coordinates":{"latitude":53.3, "longitude":-110.000001}}, "128667147":{"entityId":"128667147", "parentId":"27536631", "name":"Kangirsuk", "type":"PLACE_TYPE_AIRPORT", "iata":"YKG", "coordinates":{"latitude":60, "longitude":-70}}, "128667148":{"entityId":"128667148", "parentId":"46930586", "name":"Havre St Pierre", "type":"PLACE_TYPE_AIRPORT", "iata":"YGV", "coordinates":{"latitude":50.295481, "longitude":-63.621826}}, "128667149":{"entityId":"128667149", "parentId":"27536486", "name":"Fort Simpson", "type":"PLACE_TYPE_AIRPORT", "iata":"YFS", "coordinates":{"latitude":61.75, "longitude":-121.23333}}, "128667150":{"entityId":"128667150", "parentId":"27548507", "name":"Yun Cheng", "type":"PLACE_TYPE_AIRPORT", "iata":"YCU", "coordinates":{"latitude":35.1164, "longitude":111.0336}}, "128667151":{"entityId":"128667151", "parentId":"31695287", "name":"Bagotville", "type":"PLACE_TYPE_AIRPORT", "iata":"YBG", "coordinates":{"latitude":48.322222, "longitude":-70.988611}}, "128667152":{"entityId":"128667152", "parentId":"27536330", "name":"Xuzhou", "type":"PLACE_TYPE_AIRPORT", "iata":"XUZ", "coordinates":{"latitude":34.056144, "longitude":117.554998}}, "128667153":{"entityId":"128667153", "parentId":"27536303", "name":"Xieng Khouang", "type":"PLACE_TYPE_AIRPORT", "iata":"XKH", "coordinates":{"latitude":19.45, "longitude":103.158}}, "128667154":{"entityId":"128667154", "parentId":"27536277", "name":"West Yellowstone", "type":"PLACE_TYPE_AIRPORT", "iata":"WYS", "coordinates":{"latitude":44.686667, "longitude":-111.104722}}, "128667155":{"entityId":"128667155", "parentId":"27536255", "name":"Westport", "type":"PLACE_TYPE_AIRPORT", "iata":"WSZ", "coordinates":{"latitude":-41.739722, "longitude":171.581944}}, "128667156":{"entityId":"128667156", "parentId":"45602748", "name":"Wenshan Puzhehei", "type":"PLACE_TYPE_AIRPORT", "iata":"WNH", "coordinates":{"latitude":23.5583, "longitude":104.325}}, "128667157":{"entityId":"128667157", "parentId":"27536219", "name":"Wakkanai", "type":"PLACE_TYPE_AIRPORT", "iata":"WKJ", "coordinates":{"latitude":45.404167, "longitude":141.800833}}, "128667158":{"entityId":"128667158", "parentId":"27547455", "name":"Stebbins", "type":"PLACE_TYPE_AIRPORT", "iata":"WBB", "coordinates":{"latitude":63.516667, "longitude":-162.278889}}, "128667160":{"entityId":"128667160", "parentId":"27547409", "name":"Valência", "type":"PLACE_TYPE_AIRPORT", "iata":"VLN", "coordinates":{"latitude":10.150296, "longitude":-67.926235}}, "128667161":{"entityId":"128667161", "parentId":"27550914", "name":"Vijayawada", "type":"PLACE_TYPE_AIRPORT", "iata":"VGA", "coordinates":{"latitude":16.529444, "longitude":80.797222}}, "128667162":{"entityId":"128667162", "parentId":"27547368", "name":"Vardø Lufthavn", "type":"PLACE_TYPE_AIRPORT", "iata":"VAW", "coordinates":{"latitude":70.354722, "longitude":31.045556}}, "128667163":{"entityId":"128667163", "parentId":"27550913", "name":"Umtata", "type":"PLACE_TYPE_AIRPORT", "iata":"UTT", "coordinates":{"latitude":-31.547527, "longitude":28.67569}}, "128667164":{"entityId":"128667164", "parentId":"27551004", "name":"Kiunga", "type":"PLACE_TYPE_AIRPORT", "iata":"UNG", "coordinates":{"latitude":-6.116667, "longitude":141.291667}}, "128667165":{"entityId":"128667165", "parentId":"27542908", "name":"Kobe", "type":"PLACE_TYPE_AIRPORT", "iata":"UKB", "coordinates":{"latitude":34.63541334563468, "longitude":135.2250383159125}}, "128667166":{"entityId":"128667166", "parentId":"27547304", "name":"Ube", "type":"PLACE_TYPE_AIRPORT", "iata":"UBJ", "coordinates":{"latitude":33.925833, "longitude":131.274444}}, "128667167":{"entityId":"128667167", "parentId":"29475343", "name":"Taveuni", "type":"PLACE_TYPE_AIRPORT", "iata":"TVU", "coordinates":{"latitude":-16.69079, "longitude":-179.87683}}, "128667169":{"entityId":"128667169", "parentId":"27547244", "name":"Tauranga", "type":"PLACE_TYPE_AIRPORT", "iata":"TRG", "coordinates":{"latitude":-37.670833, "longitude":176.194444}}, "128667170":{"entityId":"128667170", "parentId":"46914670", "name":"Togiak Village", "type":"PLACE_TYPE_AIRPORT", "iata":"TOG", "coordinates":{"latitude":59.056667, "longitude":-160.382222}}, "128667171":{"entityId":"128667171", "parentId":"31453821", "name":"Jinan Yaoqiang", "type":"PLACE_TYPE_AIRPORT", "iata":"TNA", "coordinates":{"latitude":36.857222, "longitude":117.216111}}, "128667172":{"entityId":"128667172", "parentId":"27548459", "name":"Tlemcen", "type":"PLACE_TYPE_AIRPORT", "iata":"TLM", "coordinates":{"latitude":35.016667, "longitude":-1.45}}, "128667173":{"entityId":"128667173", "parentId":"45356870", "name":"Tanjung Selor", "type":"PLACE_TYPE_AIRPORT", "iata":"TJS", "coordinates":{"latitude":2.85, "longitude":117.366667}}, "128667174":{"entityId":"128667174", "parentId":"27542826", "name":"Internacional de Mehrabad", "type":"PLACE_TYPE_AIRPORT", "iata":"THR", "coordinates":{"latitude":35.689722, "longitude":51.315833}}, "128667175":{"entityId":"128667175", "parentId":"46243244", "name":"Terceira - Lajes", "type":"PLACE_TYPE_AIRPORT", "iata":"TER", "coordinates":{"latitude":38.756667, "longitude":-27.094167}}, "128667177":{"entityId":"128667177", "parentId":"27550859", "name":"Tuy Hòa", "type":"PLACE_TYPE_AIRPORT", "iata":"TBB", "coordinates":{"latitude":13.044167, "longitude":109.339722}}, "128667178":{"entityId":"128667178", "parentId":"27547106", "name":"Shiraz", "type":"PLACE_TYPE_AIRPORT", "iata":"SYZ", "coordinates":{"latitude":29.540278, "longitude":52.590833}}, "128667179":{"entityId":"128667179", "parentId":"27536192", "name":"Svolvær", "type":"PLACE_TYPE_AIRPORT", "iata":"SVJ", "coordinates":{"latitude":68.241667, "longitude":14.672222}}, "128667180":{"entityId":"128667180", "parentId":"27546300", "name":"Stavropol", "type":"PLACE_TYPE_AIRPORT", "iata":"STW", "coordinates":{"latitude":45.109165, "longitude":42.112778}}, "128667181":{"entityId":"128667181", "parentId":"27547068", "name":"Springfield", "type":"PLACE_TYPE_AIRPORT", "iata":"SPI", "coordinates":{"latitude":39.844167, "longitude":-89.678889}}, "128667182":{"entityId":"128667182", "parentId":"27547076", "name":"Sucre", "type":"PLACE_TYPE_AIRPORT", "iata":"SRE", "coordinates":{"latitude":-19.00708, "longitude":-65.28875}}, "128667183":{"entityId":"128667183", "parentId":"27547023", "name":"Samos", "type":"PLACE_TYPE_AIRPORT", "iata":"SMI", "coordinates":{"latitude":37.688889, "longitude":26.913889}}, "128667184":{"entityId":"128667184", "parentId":"27548413", "name":"Sokoto", "type":"PLACE_TYPE_AIRPORT", "iata":"SKO", "coordinates":{"latitude":12.916389, "longitude":5.207222}}, "128667185":{"entityId":"128667185", "parentId":"27546345", "name":"Shageluk", "type":"PLACE_TYPE_AIRPORT", "iata":"SHX", "coordinates":{"latitude":62.695833, "longitude":-159.566667}}, "128667186":{"entityId":"128667186", "parentId":"46067450", "name":"St George", "type":"PLACE_TYPE_AIRPORT", "iata":"SGO", "coordinates":{"latitude":-28.053333, "longitude":148.593889}}, "128667187":{"entityId":"128667187", "parentId":"44475902", "name":"Seronera", "type":"PLACE_TYPE_AIRPORT", "iata":"SEU", "coordinates":{"latitude":-2.45806, "longitude":34.8225}}, "128667188":{"entityId":"128667188", "parentId":"29475183", "name":"Socotorá", "type":"PLACE_TYPE_AIRPORT", "iata":"SCT", "coordinates":{"latitude":12.5, "longitude":54}}, "128667189":{"entityId":"128667189", "parentId":"27546286", "name":"Lubango", "type":"PLACE_TYPE_AIRPORT", "iata":"SDD", "coordinates":{"latitude":-14.924444, "longitude":13.576667}}, "128667190":{"entityId":"128667190", "parentId":"27548399", "name":"Ruteng", "type":"PLACE_TYPE_AIRPORT", "iata":"RTG", "coordinates":{"latitude":-8.6, "longitude":120.45}}, "128667191":{"entityId":"128667191", "parentId":"34243830", "name":"Rostock", "type":"PLACE_TYPE_AIRPORT", "iata":"RLG", "coordinates":{"latitude":53.92, "longitude":12.266667}}, "128667193":{"entityId":"128667193", "parentId":"29475161", "name":"Rangiroa", "type":"PLACE_TYPE_AIRPORT", "iata":"RGI", "coordinates":{"latitude":-14.95428, "longitude":-147.6608}}, "128667194":{"entityId":"128667194", "parentId":"29475409", "name":"Rum Cay", "type":"PLACE_TYPE_AIRPORT", "iata":"RCY", "coordinates":{"latitude":23.666667, "longitude":-74.966667}}, "128667195":{"entityId":"128667195", "parentId":"46450196", "name":"Saqqaq", "type":"PLACE_TYPE_AIRPORT", "iata":"QUP", "coordinates":{"latitude":70.05, "longitude":-52}}, "128667196":{"entityId":"128667196", "parentId":"27546093", "name":"Port Sudan", "type":"PLACE_TYPE_AIRPORT", "iata":"PZU", "coordinates":{"latitude":19.577778, "longitude":37.213889}}, "128667197":{"entityId":"128667197", "parentId":"38326243", "name":"Preveza", "type":"PLACE_TYPE_AIRPORT", "iata":"PVK", "coordinates":{"latitude":38.926389, "longitude":20.765833}}, "128667198":{"entityId":"128667198", "parentId":"27548321", "name":"Polokwane", "type":"PLACE_TYPE_AIRPORT", "iata":"PTG", "coordinates":{"latitude":-23.848947, "longitude":29.459152}}, "128667199":{"entityId":"128667199", "parentId":"39563609", "name":"Phú Quốc", "type":"PLACE_TYPE_AIRPORT", "iata":"PQC", "coordinates":{"latitude":10.233333, "longitude":103.966667}}, "128667200":{"entityId":"128667200", "parentId":"27545142", "name":"Pensacola", "type":"PLACE_TYPE_AIRPORT", "iata":"PNS", "coordinates":{"latitude":30.4725, "longitude":-87.188333}}, "128667201":{"entityId":"128667201", "parentId":"27546051", "name":"Posadas", "type":"PLACE_TYPE_AIRPORT", "iata":"PSS", "coordinates":{"latitude":-27.38584, "longitude":-55.97073}}, "128667202":{"entityId":"128667202", "parentId":"27545967", "name":"Puerto Jiménez", "type":"PLACE_TYPE_AIRPORT", "iata":"PJM", "coordinates":{"latitude":8.583333, "longitude":-83.333333}}, "128667203":{"entityId":"128667203", "parentId":"44371156", "name":"Internacional de Asaloyeh - Golfo Pérsico", "type":"PLACE_TYPE_AIRPORT", "iata":"PGU", "coordinates":{"latitude":27.3672, "longitude":52.7339}}, "128667204":{"entityId":"128667204", "parentId":"27545927", "name":"Pardubice", "type":"PLACE_TYPE_AIRPORT", "iata":"PED", "coordinates":{"latitude":50.013333, "longitude":15.738611}}, "128667205":{"entityId":"128667205", "parentId":"27548365", "name":"Potosí", "type":"PLACE_TYPE_AIRPORT", "iata":"POI", "coordinates":{"latitude":-19.533333, "longitude":-65.716667}}, "128667207":{"entityId":"128667207", "parentId":"27545246", "name":"Ben Bella", "type":"PLACE_TYPE_AIRPORT", "iata":"ORN", "coordinates":{"latitude":35.627778, "longitude":-0.610556}}, "128667208":{"entityId":"128667208", "parentId":"27550024", "name":"Oranjemund", "type":"PLACE_TYPE_AIRPORT", "iata":"OMD", "coordinates":{"latitude":-28.583333, "longitude":16.45}}, "128667209":{"entityId":"128667209", "parentId":"27545207", "name":"Ohrid", "type":"PLACE_TYPE_AIRPORT", "iata":"OHD", "coordinates":{"latitude":41.185, "longitude":20.743056}}, "128667210":{"entityId":"128667210", "parentId":"27545184", "name":"Obihiro", "type":"PLACE_TYPE_AIRPORT", "iata":"OBO", "coordinates":{"latitude":42.733333, "longitude":143.217222}}, "128667211":{"entityId":"128667211", "parentId":"27545164", "name":"Nulato", "type":"PLACE_TYPE_AIRPORT", "iata":"NUL", "coordinates":{"latitude":64.727778, "longitude":-158.076667}}, "128667213":{"entityId":"128667213", "parentId":"44831879", "name":"Nojabrxsk", "type":"PLACE_TYPE_AIRPORT", "iata":"NOJ", "coordinates":{"latitude":63.183333, "longitude":75.27}}, "128667214":{"entityId":"128667214", "parentId":"27545123", "name":"Nuevo Laredo", "type":"PLACE_TYPE_AIRPORT", "iata":"NLD", "coordinates":{"latitude":27.434722, "longitude":-99.566667}}, "128667215":{"entityId":"128667215", "parentId":"44853501", "name":"Nogliki", "type":"PLACE_TYPE_AIRPORT", "iata":"NGK", "coordinates":{"latitude":51.789874, "longitude":143.143428}}, "128667216":{"entityId":"128667216", "parentId":"27549376", "name":"Nabire", "type":"PLACE_TYPE_AIRPORT", "iata":"NBX", "coordinates":{"latitude":-3.366667, "longitude":135.433333}}, "128667217":{"entityId":"128667217", "parentId":"46138987", "name":"Mechria", "type":"PLACE_TYPE_AIRPORT", "iata":"MZW", "coordinates":{"latitude":33.521944, "longitude":-0.283056}}, "128667219":{"entityId":"128667219", "parentId":"27545037", "name":"Maturin", "type":"PLACE_TYPE_AIRPORT", "iata":"MUN", "coordinates":{"latitude":9.745833, "longitude":-63.154167}}, "128667220":{"entityId":"128667220", "parentId":"27545018", "name":"Muş", "type":"PLACE_TYPE_AIRPORT", "iata":"MSR", "coordinates":{"latitude":38.747769, "longitude":41.661236}}, "128667221":{"entityId":"128667221", "parentId":"27545006", "name":"Mérida", "type":"PLACE_TYPE_AIRPORT", "iata":"MRD", "coordinates":{"latitude":8.583333, "longitude":-71.157778}}, "128667222":{"entityId":"128667222", "parentId":"29475161", "name":"Moorea", "type":"PLACE_TYPE_AIRPORT", "iata":"MOZ", "coordinates":{"latitude":-17.483333, "longitude":-149.766667}}, "128667223":{"entityId":"128667223", "parentId":"81974353", "name":"Miyako Jima", "type":"PLACE_TYPE_AIRPORT", "iata":"MMY", "coordinates":{"latitude":24.780833, "longitude":125.297222}}, "128667224":{"entityId":"128667224", "parentId":"27548299", "name":"Manokwari", "type":"PLACE_TYPE_AIRPORT", "iata":"MKW", "coordinates":{"latitude":-0.893056, "longitude":134.052778}}, "128667225":{"entityId":"128667225", "parentId":"27544934", "name":"Mian Yang", "type":"PLACE_TYPE_AIRPORT", "iata":"MIG", "coordinates":{"latitude":31.431111, "longitude":104.738056}}, "128667226":{"entityId":"128667226", "parentId":"27544898", "name":"Mehamn", "type":"PLACE_TYPE_AIRPORT", "iata":"MEH", "coordinates":{"latitude":71.033333, "longitude":27.833333}}, "128667227":{"entityId":"128667227", "parentId":"27544867", "name":"Masbate", "type":"PLACE_TYPE_AIRPORT", "iata":"MBT", "coordinates":{"latitude":12.36937, "longitude":123.62924}}, "128667228":{"entityId":"128667228", "parentId":"27544847", "name":"Luzhou", "type":"PLACE_TYPE_AIRPORT", "iata":"LZO", "coordinates":{"latitude":28.883333, "longitude":105.35}}, "128667229":{"entityId":"128667229", "parentId":"45900577", "name":"Luang Namtha", "type":"PLACE_TYPE_AIRPORT", "iata":"LXG", "coordinates":{"latitude":21.05, "longitude":101.466667}}, "128667230":{"entityId":"128667230", "parentId":"27544173", "name":"Luderitz", "type":"PLACE_TYPE_AIRPORT", "iata":"LUD", "coordinates":{"latitude":-26.686389, "longitude":15.243889}}, "128667232":{"entityId":"128667232", "parentId":"35254477", "name":"Lanai City", "type":"PLACE_TYPE_AIRPORT", "iata":"LNY", "coordinates":{"latitude":20.784722, "longitude":-156.949444}}, "128667233":{"entityId":"128667233", "parentId":"44459023", "name":"Internacional de Lankaran", "type":"PLACE_TYPE_AIRPORT", "iata":"LLK", "coordinates":{"latitude":38.74203, "longitude":48.824093}}, "128667234":{"entityId":"128667234", "parentId":"27538670", "name":"Lodwar", "type":"PLACE_TYPE_AIRPORT", "iata":"LOK", "coordinates":{"latitude":3.15, "longitude":35.6}}, "128667235":{"entityId":"128667235", "parentId":"27544018", "name":"Derry", "type":"PLACE_TYPE_AIRPORT", "iata":"LDY", "coordinates":{"latitude":55.043333, "longitude":-7.153333}}, "128667236":{"entityId":"128667236", "parentId":"46136310", "name":"Labasa", "type":"PLACE_TYPE_AIRPORT", "iata":"LBS", "coordinates":{"latitude":-16.464722, "longitude":179.340556}}, "128667237":{"entityId":"128667237", "parentId":"27543961", "name":"Luanda", "type":"PLACE_TYPE_AIRPORT", "iata":"LAD", "coordinates":{"latitude":-8.853056, "longitude":13.236111}}, "128667239":{"entityId":"128667239", "parentId":"46073133", "name":"Kwajalein", "type":"PLACE_TYPE_AIRPORT", "iata":"KWA", "coordinates":{"latitude":8.716667, "longitude":167.733333}}, "128667240":{"entityId":"128667240", "parentId":"27543917", "name":"Kudat", "type":"PLACE_TYPE_AIRPORT", "iata":"KUD", "coordinates":{"latitude":6.925, "longitude":116.834167}}, "128667241":{"entityId":"128667241", "parentId":"46914637", "name":"Saint Mary's", "type":"PLACE_TYPE_AIRPORT", "iata":"KSM", "coordinates":{"latitude":62.061667, "longitude":-163.298056}}, "128667242":{"entityId":"128667242", "parentId":"46914628", "name":"Port Williams", "type":"PLACE_TYPE_AIRPORT", "iata":"KPR", "coordinates":{"latitude":58.433333, "longitude":-152.583333}}, "128667243":{"entityId":"128667243", "parentId":"27543097", "name":"New Stuyahok", "type":"PLACE_TYPE_AIRPORT", "iata":"KNW", "coordinates":{"latitude":59.452222, "longitude":-157.329722}}, "128667244":{"entityId":"128667244", "parentId":"27543043", "name":"Manokotak", "type":"PLACE_TYPE_AIRPORT", "iata":"KMO", "coordinates":{"latitude":58.984444, "longitude":-159.035833}}, "128667245":{"entityId":"128667245", "parentId":"31980463", "name":"Kita Kyushu", "type":"PLACE_TYPE_AIRPORT", "iata":"KKJ", "coordinates":{"latitude":33.833056, "longitude":130.949444}}, "128667246":{"entityId":"128667246", "parentId":"29475383", "name":"Kerry", "type":"PLACE_TYPE_AIRPORT", "iata":"KIR", "coordinates":{"latitude":52.180878, "longitude":-9.523783}}, "128667247":{"entityId":"128667247", "parentId":"27543834", "name":"Kogalym", "type":"PLACE_TYPE_AIRPORT", "iata":"KGP", "coordinates":{"latitude":62.195833, "longitude":74.533611}}, "128667248":{"entityId":"128667248", "parentId":"27543803", "name":"Kerman", "type":"PLACE_TYPE_AIRPORT", "iata":"KER", "coordinates":{"latitude":30.263333, "longitude":56.9575}}, "128667249":{"entityId":"128667249", "parentId":"29475313", "name":"Kaadedhdhoo", "type":"PLACE_TYPE_AIRPORT", "iata":"KDM", "coordinates":{"latitude":0.488056, "longitude":72.996944}}, "128667250":{"entityId":"128667250", "parentId":"45365827", "name":"Kao", "type":"PLACE_TYPE_AIRPORT", "iata":"KAZ", "coordinates":{"latitude":1.166667, "longitude":127.866667}}, "128667251":{"entityId":"128667251", "parentId":"27543045", "name":"Juzhou", "type":"PLACE_TYPE_AIRPORT", "iata":"JUZ", "coordinates":{"latitude":28.9658, "longitude":118.899}}, "128667252":{"entityId":"128667252", "parentId":"46450216", "name":"Qaarsut", "type":"PLACE_TYPE_AIRPORT", "iata":"JQA", "coordinates":{"latitude":70.731944, "longitude":-52.702778}}, "128667253":{"entityId":"128667253", "parentId":"33521649", "name":"Jiujiang", "type":"PLACE_TYPE_AIRPORT", "iata":"JIU", "coordinates":{"latitude":29.483685, "longitude":115.802681}}, "128667254":{"entityId":"128667254", "parentId":"27542957", "name":"Julia Creek", "type":"PLACE_TYPE_AIRPORT", "iata":"JCK", "coordinates":{"latitude":-20.583333, "longitude":141.7}}, "128667255":{"entityId":"128667255", "parentId":"27542922", "name":"Chandigarh", "type":"PLACE_TYPE_AIRPORT", "iata":"IXC", "coordinates":{"latitude":30.671944, "longitude":76.790556}}, "128667256":{"entityId":"128667256", "parentId":"27542897", "name":"Isparta", "type":"PLACE_TYPE_AIRPORT", "iata":"ISE", "coordinates":{"latitude":37.866111, "longitude":30.382222}}, "128667257":{"entityId":"128667257", "parentId":"27542886", "name":"Qingyang", "type":"PLACE_TYPE_AIRPORT", "iata":"IQN", "coordinates":{"latitude":36.1, "longitude":107.783333}}, "128667258":{"entityId":"128667258", "parentId":"46430283", "name":"Islay Glenegedale", "type":"PLACE_TYPE_AIRPORT", "iata":"ILY", "coordinates":{"latitude":55.6819, "longitude":-6.2542}}, "128667259":{"entityId":"128667259", "parentId":"29475409", "name":"Inagua", "type":"PLACE_TYPE_AIRPORT", "iata":"IGA", "coordinates":{"latitude":20.983333, "longitude":-73.666667}}, "128667260":{"entityId":"128667260", "parentId":"46139322", "name":"In Amenas", "type":"PLACE_TYPE_AIRPORT", "iata":"IAM", "coordinates":{"latitude":28.051111, "longitude":9.638056}}, "128667261":{"entityId":"128667261", "parentId":"27542744", "name":"Huánuco", "type":"PLACE_TYPE_AIRPORT", "iata":"HUU", "coordinates":{"latitude":-9.866667, "longitude":-76.216667}}, "128667262":{"entityId":"128667262", "parentId":"27542698", "name":"Hooper Bay", "type":"PLACE_TYPE_AIRPORT", "iata":"HPB", "coordinates":{"latitude":61.525, "longitude":-166.145278}}, "128667263":{"entityId":"128667263", "parentId":"27542090", "name":"Hoonah", "type":"PLACE_TYPE_AIRPORT", "iata":"HNH", "coordinates":{"latitude":58.098056, "longitude":-135.403333}}, "128667264":{"entityId":"128667264", "parentId":"45660493", "name":"Ulanhot", "type":"PLACE_TYPE_AIRPORT", "iata":"HLH", "coordinates":{"latitude":46.033333, "longitude":122}}, "128667265":{"entityId":"128667265", "parentId":"46821177", "name":"Hilton Head", "type":"PLACE_TYPE_AIRPORT", "iata":"HHH", "coordinates":{"latitude":32.216667, "longitude":-80.683333}}, "128667266":{"entityId":"128667266", "parentId":"45605856", "name":"Hebei Handan", "type":"PLACE_TYPE_AIRPORT", "iata":"HDG", "coordinates":{"latitude":36.5258, "longitude":114.425}}, "128667267":{"entityId":"128667267", "parentId":"27541982", "name":"Gizo", "type":"PLACE_TYPE_AIRPORT", "iata":"GZO", "coordinates":{"latitude":-8.116667, "longitude":156.833333}}, "128667268":{"entityId":"128667268", "parentId":"27541935", "name":"Gustavus", "type":"PLACE_TYPE_AIRPORT", "iata":"GST", "coordinates":{"latitude":58.4275, "longitude":-135.705}}, "128667269":{"entityId":"128667269", "parentId":"81977754", "name":"Lyudao", "type":"PLACE_TYPE_AIRPORT", "iata":"GNI", "coordinates":{"latitude":22.67278, "longitude":121.46639}}, "128667270":{"entityId":"128667270", "parentId":"27541855", "name":"Golfito", "type":"PLACE_TYPE_AIRPORT", "iata":"GLF", "coordinates":{"latitude":8.651389, "longitude":-83.180833}}, "128667271":{"entityId":"128667271", "parentId":"46387648", "name":"Goulimime", "type":"PLACE_TYPE_AIRPORT", "iata":"GLN", "coordinates":{"latitude":29.016667, "longitude":-10.066667}}, "128667272":{"entityId":"128667272", "parentId":"27541789", "name":"Gondar", "type":"PLACE_TYPE_AIRPORT", "iata":"GDQ", "coordinates":{"latitude":12.514444, "longitude":37.445556}}, "128667273":{"entityId":"128667273", "parentId":"27541742", "name":"Fuoshan", "type":"PLACE_TYPE_AIRPORT", "iata":"FUO", "coordinates":{"latitude":23.085733, "longitude":113.0694}}, "128667274":{"entityId":"128667274", "parentId":"27541715", "name":"Flores", "type":"PLACE_TYPE_AIRPORT", "iata":"FRS", "coordinates":{"latitude":16.916667, "longitude":-89.883333}}, "128667275":{"entityId":"128667275", "parentId":"29475434", "name":"Ilha Flinders", "type":"PLACE_TYPE_AIRPORT", "iata":"FLS", "coordinates":{"latitude":-40.095, "longitude":147.996667}}, "128667276":{"entityId":"128667276", "parentId":"33452515", "name":"Førde Bringeland", "type":"PLACE_TYPE_AIRPORT", "iata":"FDE", "coordinates":{"latitude":61.392363, "longitude":5.759411}}, "128667277":{"entityId":"128667277", "parentId":"27540964", "name":"Evenes", "type":"PLACE_TYPE_AIRPORT", "iata":"EVE", "coordinates":{"latitude":68.496667, "longitude":16.679722}}, "128667278":{"entityId":"128667278", "parentId":"27550231", "name":"Errachidia", "type":"PLACE_TYPE_AIRPORT", "iata":"ERH", "coordinates":{"latitude":31.95, "longitude":-4.4}}, "128667279":{"entityId":"128667279", "parentId":"27540907", "name":"Elim", "type":"PLACE_TYPE_AIRPORT", "iata":"ELI", "coordinates":{"latitude":64.613611, "longitude":-162.270278}}, "128667280":{"entityId":"128667280", "parentId":"27540887", "name":"Egegik", "type":"PLACE_TYPE_AIRPORT", "iata":"EGX", "coordinates":{"latitude":58.187719, "longitude":-157.375202}}, "128667281":{"entityId":"128667281", "parentId":"39671267", "name":"Nejran", "type":"PLACE_TYPE_AIRPORT", "iata":"EAM", "coordinates":{"latitude":17.611667, "longitude":44.429722}}, "128667282":{"entityId":"128667282", "parentId":"81980482", "name":"Drake Bay", "type":"PLACE_TYPE_AIRPORT", "iata":"DRK", "coordinates":{"latitude":8.700499, "longitude":-83.622437}}, "128667283":{"entityId":"128667283", "parentId":"27540775", "name":"Dnipro", "type":"PLACE_TYPE_AIRPORT", "iata":"DNK", "coordinates":{"latitude":48.357222, "longitude":35.100556}}, "128667284":{"entityId":"128667284", "parentId":"27540746", "name":"Léopold Sédar Senghor", "type":"PLACE_TYPE_AIRPORT", "iata":"DKR", "coordinates":{"latitude":14.740833, "longitude":-17.490556}}, "128667285":{"entityId":"128667285", "parentId":"27540721", "name":"Dharamsala", "type":"PLACE_TYPE_AIRPORT", "iata":"DHM", "coordinates":{"latitude":32.3, "longitude":76.266667}}, "128667286":{"entityId":"128667286", "parentId":"27540698", "name":"Dandong", "type":"PLACE_TYPE_AIRPORT", "iata":"DDG", "coordinates":{"latitude":40.033595, "longitude":124.286528}}, "128667287":{"entityId":"128667287", "parentId":"27540663", "name":"Corozal", "type":"PLACE_TYPE_AIRPORT", "iata":"CZU", "coordinates":{"latitude":9.3375, "longitude":-75.282778}}, "128667288":{"entityId":"128667288", "parentId":"27540619", "name":"Ciudad Victoria", "type":"PLACE_TYPE_AIRPORT", "iata":"CVM", "coordinates":{"latitude":23.713889, "longitude":-98.965278}}, "128667289":{"entityId":"128667289", "parentId":"27539920", "name":"Catarman", "type":"PLACE_TYPE_AIRPORT", "iata":"CRM", "coordinates":{"latitude":12.483333, "longitude":124.583333}}, "128667290":{"entityId":"128667290", "parentId":"27539874", "name":"Moab", "type":"PLACE_TYPE_AIRPORT", "iata":"CNY", "coordinates":{"latitude":38.759444, "longitude":-109.746112}}, "128667291":{"entityId":"128667291", "parentId":"27539821", "name":"Carajás", "type":"PLACE_TYPE_AIRPORT", "iata":"CKS", "coordinates":{"latitude":-6.11781, "longitude":-50.00347}}, "128667292":{"entityId":"128667292", "parentId":"27539806", "name":"Comiso", "type":"PLACE_TYPE_AIRPORT", "iata":"CIY", "coordinates":{"latitude":36.991667, "longitude":14.606945}}, "128667293":{"entityId":"128667293", "parentId":"27539776", "name":"Chittagong", "type":"PLACE_TYPE_AIRPORT", "iata":"CGP", "coordinates":{"latitude":22.2575, "longitude":91.825556}}, "128667294":{"entityId":"128667294", "parentId":"27539743", "name":"Cordova Mudhole Smith", "type":"PLACE_TYPE_AIRPORT", "iata":"CDV", "coordinates":{"latitude":60.493056, "longitude":-145.47}}, "128667296":{"entityId":"128667296", "parentId":"81978559", "name":"Canaima", "type":"PLACE_TYPE_AIRPORT", "iata":"CAJ", "coordinates":{"latitude":6.25, "longitude":-62.833333}}, "128667297":{"entityId":"128667297", "parentId":"27539631", "name":"Bhairawa", "type":"PLACE_TYPE_AIRPORT", "iata":"BWA", "coordinates":{"latitude":27.504167, "longitude":83.42}}, "128667298":{"entityId":"128667298", "parentId":"27539603", "name":"Burketown", "type":"PLACE_TYPE_AIRPORT", "iata":"BUC", "coordinates":{"latitude":-17.75, "longitude":139.533333}}, "128667299":{"entityId":"128667299", "parentId":"27541996", "name":"Hail", "type":"PLACE_TYPE_AIRPORT", "iata":"HAS", "coordinates":{"latitude":27.43792, "longitude":41.68629}}, "128667300":{"entityId":"128667300", "parentId":"27540730", "name":"Dickinson", "type":"PLACE_TYPE_AIRPORT", "iata":"DIK", "coordinates":{"latitude":46.833333, "longitude":-102.9}}, "128667301":{"entityId":"128667301", "parentId":"45292943", "name":"Dehradun", "type":"PLACE_TYPE_AIRPORT", "iata":"DED", "coordinates":{"latitude":30.189444, "longitude":78.18}}, "128667302":{"entityId":"128667302", "parentId":"27536457", "name":"Dallas Love Field", "type":"PLACE_TYPE_AIRPORT", "iata":"DAL", "coordinates":{"latitude":32.846944, "longitude":-96.853333}}, "128667303":{"entityId":"128667303", "parentId":"27540644", "name":"Chefornak", "type":"PLACE_TYPE_AIRPORT", "iata":"CYF", "coordinates":{"latitude":60.216667, "longitude":-164.2}}, "128667305":{"entityId":"128667305", "parentId":"27539888", "name":"Choibalsan", "type":"PLACE_TYPE_AIRPORT", "iata":"COQ", "coordinates":{"latitude":48.133333, "longitude":114.9}}, "128667306":{"entityId":"128667306", "parentId":"27539834", "name":"Clarks Point", "type":"PLACE_TYPE_AIRPORT", "iata":"CLP", "coordinates":{"latitude":58.843056, "longitude":-158.543056}}, "128667307":{"entityId":"128667307", "parentId":"27539810", "name":"Chitral", "type":"PLACE_TYPE_AIRPORT", "iata":"CJL", "coordinates":{"latitude":35.886111, "longitude":71.794444}}, "128667308":{"entityId":"128667308", "parentId":"27539777", "name":"Changchun", "type":"PLACE_TYPE_AIRPORT", "iata":"CGQ", "coordinates":{"latitude":43.99621, "longitude":125.68536}}, "128667309":{"entityId":"128667309", "parentId":"27539753", "name":"Ciudad Obregón", "type":"PLACE_TYPE_AIRPORT", "iata":"CEN", "coordinates":{"latitude":27.391944, "longitude":-109.839167}}, "128667310":{"entityId":"128667310", "parentId":"27539716", "name":"Carcassonne", "type":"PLACE_TYPE_AIRPORT", "iata":"CCF", "coordinates":{"latitude":43.2167, "longitude":2.3167}}, "128667311":{"entityId":"128667311", "parentId":"27539694", "name":"Cobar", "type":"PLACE_TYPE_AIRPORT", "iata":"CAZ", "coordinates":{"latitude":-31.535, "longitude":145.793333}}, "128667312":{"entityId":"128667312", "parentId":"27539656", "name":"Yacuiba", "type":"PLACE_TYPE_AIRPORT", "iata":"BYC", "coordinates":{"latitude":-21.95, "longitude":-63.65}}, "128667313":{"entityId":"128667313", "parentId":"27539612", "name":"Bulawayo", "type":"PLACE_TYPE_AIRPORT", "iata":"BUQ", "coordinates":{"latitude":-20.016389, "longitude":28.618611}}, "128667314":{"entityId":"128667314", "parentId":"27539581", "name":"Basra", "type":"PLACE_TYPE_AIRPORT", "iata":"BSR", "coordinates":{"latitude":30.549167, "longitude":47.662222}}, "128667315":{"entityId":"128667315", "parentId":"29475161", "name":"Bora-Bora", "type":"PLACE_TYPE_AIRPORT", "iata":"BOB", "coordinates":{"latitude":-16.443056, "longitude":-151.748333}}, "128667316":{"entityId":"128667316", "parentId":"27539456", "name":"Barcelona", "type":"PLACE_TYPE_AIRPORT", "iata":"BLA", "coordinates":{"latitude":10.109722, "longitude":-64.6875}}, "128667317":{"entityId":"128667317", "parentId":"27539424", "name":"Båtsfjord", "type":"PLACE_TYPE_AIRPORT", "iata":"BJF", "coordinates":{"latitude":70.6, "longitude":29.666667}}, "128667318":{"entityId":"128667318", "parentId":"27538781", "name":"Broken Hill", "type":"PLACE_TYPE_AIRPORT", "iata":"BHQ", "coordinates":{"latitude":-32.001667, "longitude":141.466667}}, "128667319":{"entityId":"128667319", "parentId":"27538734", "name":"Beirute", "type":"PLACE_TYPE_AIRPORT", "iata":"BEY", "coordinates":{"latitude":33.8194647, "longitude":35.4912258}}, "128667320":{"entityId":"128667320", "parentId":"27548273", "name":"Baracoa", "type":"PLACE_TYPE_AIRPORT", "iata":"BCA", "coordinates":{"latitude":20.36532, "longitude":-74.50621}}, "128667321":{"entityId":"128667321", "parentId":"27548237", "name":"Andijan", "type":"PLACE_TYPE_AIRPORT", "iata":"AZN", "coordinates":{"latitude":40.733333, "longitude":72.3}}, "128667322":{"entityId":"128667322", "parentId":"192465715", "name":"Aurukun Mission", "type":"PLACE_TYPE_AIRPORT", "iata":"AUU", "coordinates":{"latitude":-13.354882, "longitude":141.719856}}, "128667323":{"entityId":"128667323", "parentId":"27536194", "name":"Atoifi", "type":"PLACE_TYPE_AIRPORT", "iata":"ATD", "coordinates":{"latitude":-8.866667, "longitude":161.033333}}, "128667324":{"entityId":"128667324", "parentId":"27536367", "name":"Arctic Village", "type":"PLACE_TYPE_AIRPORT", "iata":"ARC", "coordinates":{"latitude":68.1375, "longitude":-145.524444}}, "128667325":{"entityId":"128667325", "parentId":"27536577", "name":"Anvik", "type":"PLACE_TYPE_AIRPORT", "iata":"ANV", "coordinates":{"latitude":62.647778, "longitude":-160.188889}}, "128667326":{"entityId":"128667326", "parentId":"27536539", "name":"Alta", "type":"PLACE_TYPE_AIRPORT", "iata":"ALF", "coordinates":{"latitude":69.979019, "longitude":23.354187}}, "128667327":{"entityId":"128667327", "parentId":"44440384", "name":"Jouf", "type":"PLACE_TYPE_AIRPORT", "iata":"AJF", "coordinates":{"latitude":29.78513, "longitude":40.10001}}, "128667328":{"entityId":"128667328", "parentId":"27536492", "name":"Tasiilaq", "type":"PLACE_TYPE_AIRPORT", "iata":"AGM", "coordinates":{"latitude":65.6, "longitude":-37.683333}}, "128667329":{"entityId":"128667329", "parentId":"45465256", "name":"Aek Godang", "type":"PLACE_TYPE_AIRPORT", "iata":"AEG", "coordinates":{"latitude":1.400235, "longitude":99.430276}}, "128667330":{"entityId":"128667330", "parentId":"44326852", "name":"Sahand", "type":"PLACE_TYPE_AIRPORT", "iata":"ACP", "coordinates":{"latitude":37.354444, "longitude":46.149722}}, "128667331":{"entityId":"128667331", "parentId":"27536427", "name":"Albuquerque", "type":"PLACE_TYPE_AIRPORT", "iata":"ABQ", "coordinates":{"latitude":35.042084, "longitude":-106.609268}}, "128667332":{"entityId":"128667332", "parentId":"27536442", "name":"Adana", "type":"PLACE_TYPE_AIRPORT", "iata":"ADA", "coordinates":{"latitude":36.983611, "longitude":35.280833}}, "128667333":{"entityId":"128667333", "parentId":"27546321", "name":"Şanlıurfa Güney Anadolu Projesi", "type":"PLACE_TYPE_AIRPORT", "iata":"GNY", "coordinates":{"latitude":37.44556, "longitude":38.90216}}, "128667334":{"entityId":"128667334", "parentId":"27544918", "name":"Montgomery Dannelly Fld", "type":"PLACE_TYPE_AIRPORT", "iata":"MGM", "coordinates":{"latitude":32.3, "longitude":-86.391111}}, "128667335":{"entityId":"128667335", "parentId":"213540457", "name":"Sandy Lake", "type":"PLACE_TYPE_AIRPORT", "iata":"ZSJ", "coordinates":{"latitude":53.064167, "longitude":-93.34444}}, "128667336":{"entityId":"128667336", "parentId":"29475341", "name":"Gaua", "type":"PLACE_TYPE_AIRPORT", "iata":"ZGU", "coordinates":{"latitude":-14.25, "longitude":167.5}}, "128667337":{"entityId":"128667337", "parentId":"44381598", "name":"Chah-Bahar", "type":"PLACE_TYPE_AIRPORT", "iata":"ZBR", "coordinates":{"latitude":25.44335, "longitude":60.38211}}, "128667339":{"entityId":"128667339", "parentId":"27537429", "name":"Fort St John", "type":"PLACE_TYPE_AIRPORT", "iata":"YXJ", "coordinates":{"latitude":56.233333, "longitude":-120.733333}}, "128667340":{"entityId":"128667340", "parentId":"27537403", "name":"Bonaventure", "type":"PLACE_TYPE_AIRPORT", "iata":"YVB", "coordinates":{"latitude":48.05, "longitude":-65.483333}}, "128667343":{"entityId":"128667343", "parentId":"46931207", "name":"Povungnituk", "type":"PLACE_TYPE_AIRPORT", "iata":"YPX", "coordinates":{"latitude":60.033333, "longitude":-77.166667}}, "128667344":{"entityId":"128667344", "parentId":"27537312", "name":"High Level", "type":"PLACE_TYPE_AIRPORT", "iata":"YOJ", "coordinates":{"latitude":58.618333, "longitude":-117.168334}}, "128667345":{"entityId":"128667345", "parentId":"27536666", "name":"Wemindji", "type":"PLACE_TYPE_AIRPORT", "iata":"YNC", "coordinates":{"latitude":53, "longitude":-78.816667}}, "128667346":{"entityId":"128667346", "parentId":"27536632", "name":"Schefferville", "type":"PLACE_TYPE_AIRPORT", "iata":"YKL", "coordinates":{"latitude":54.80528, "longitude":-66.80528}}, "128667347":{"entityId":"128667347", "parentId":"27536609", "name":"Hopedale", "type":"PLACE_TYPE_AIRPORT", "iata":"YHO", "coordinates":{"latitude":55.448333, "longitude":-60.229444}}, "128667348":{"entityId":"128667348", "parentId":"29475436", "name":"Gods Narrows", "type":"PLACE_TYPE_AIRPORT", "iata":"YGO", "coordinates":{"latitude":54.55, "longitude":-94.483333}}, "128667349":{"entityId":"128667349", "parentId":"44347059", "name":"Yasouj", "type":"PLACE_TYPE_AIRPORT", "iata":"YES", "coordinates":{"latitude":30.7005, "longitude":51.5451}}, "128667350":{"entityId":"128667350", "parentId":"27536360", "name":"Ikaluktutiak", "type":"PLACE_TYPE_AIRPORT", "iata":"YCB", "coordinates":{"latitude":69.09847, "longitude":-105.134697}}, "128667351":{"entityId":"128667351", "parentId":"46932619", "name":"Charlo", "type":"PLACE_TYPE_AIRPORT", "iata":"YCL", "coordinates":{"latitude":47.983333, "longitude":-66.333333}}, "128667352":{"entityId":"128667352", "parentId":"27536357", "name":"Yibin", "type":"PLACE_TYPE_AIRPORT", "iata":"YBP", "coordinates":{"latitude":28.816667, "longitude":104.533333}}, "128667353":{"entityId":"128667353", "parentId":"27536290", "name":"Châlons-en-Champagne", "type":"PLACE_TYPE_AIRPORT", "iata":"XCR", "coordinates":{"latitude":48.7678, "longitude":4.2011}}, "128667355":{"entityId":"128667355", "parentId":"27536245", "name":"Wrangell", "type":"PLACE_TYPE_AIRPORT", "iata":"WRG", "coordinates":{"latitude":56.484444, "longitude":-132.366667}}, "128667356":{"entityId":"128667356", "parentId":"27536393", "name":"Nain", "type":"PLACE_TYPE_AIRPORT", "iata":"YDP", "coordinates":{"latitude":56.533333, "longitude":-61.666667}}, "128667357":{"entityId":"128667357", "parentId":"27536207", "name":"Waingapu", "type":"PLACE_TYPE_AIRPORT", "iata":"WGP", "coordinates":{"latitude":-9.666667, "longitude":120.3}},